zip,lat,lng,city,state_id,state_name,zcta,parent_zcta,population,density,county_fips,county_name,county_weights,county_names_all,county_fips_all,imprecise,military,timezone
27006,35.94352,-80.43673,Advance,NC,North Carolina,TRUE,,15825,97.3,37059,Davie,"{""37059"": 100}",Davie,37059,FALSE,FALSE,America/New_York
27007,36.38799,-80.59144,Ararat,NC,North Carolina,TRUE,,2187,41,37171,Surry,"{""37171"": 100}",Surry,37171,FALSE,FALSE,America/New_York
27009,36.23089,-80.07927,Belews Creek,NC,North Carolina,TRUE,,3486,81.5,37067,Forsyth,"{""37067"": 90.74, ""37169"": 9.26}",Forsyth|Stokes,37067|37169,FALSE,FALSE,America/New_York
27011,36.21649,-80.69728,Boonville,NC,North Carolina,TRUE,,4853,36.4,37197,Yadkin,"{""37197"": 100}",Yadkin,37197,FALSE,FALSE,America/New_York
27012,36.00434,-80.37547,Clemmons,NC,North Carolina,TRUE,,28173,259,37067,Forsyth,"{""37067"": 62.13, ""37057"": 37.87}",Forsyth|Davidson,37067|37057,FALSE,FALSE,America/New_York
27013,35.75633,-80.70235,Cleveland,NC,North Carolina,TRUE,,6740,34.5,37159,Rowan,"{""37159"": 80.7, ""37097"": 19.3}",Rowan|Iredell,37159|37097,FALSE,FALSE,America/New_York
27014,35.8121,-80.55508,Cooleemee,NC,North Carolina,TRUE,,803,497.3,37059,Davie,"{""37059"": 100}",Davie,37059,FALSE,FALSE,America/New_York
27016,36.44318,-80.2219,Danbury,NC,North Carolina,TRUE,,1759,15.2,37169,Stokes,"{""37169"": 100}",Stokes,37169,FALSE,FALSE,America/New_York
27017,36.38141,-80.76052,Dobson,NC,North Carolina,TRUE,,9271,33,37171,Surry,"{""37171"": 100}",Surry,37171,FALSE,FALSE,America/New_York
27018,36.1978,-80.52096,East Bend,NC,North Carolina,TRUE,,7701,36.1,37197,Yadkin,"{""37197"": 100}",Yadkin,37197,FALSE,FALSE,America/New_York
27019,36.28604,-80.23548,Germanton,NC,North Carolina,TRUE,,3391,36.6,37169,Stokes,"{""37169"": 68.23, ""37067"": 31.77}",Stokes|Forsyth,37169|37067,FALSE,FALSE,America/New_York
27020,36.1047,-80.81272,Hamptonville,NC,North Carolina,TRUE,,5747,29.1,37197,Yadkin,"{""37197"": 78.34, ""37097"": 13.92, ""37193"": 7.74}",Yadkin|Iredell|Wilkes,37197|37097|37193,FALSE,FALSE,America/New_York
27021,36.31859,-80.3386,King,NC,North Carolina,TRUE,,16678,119.8,37169,Stokes,"{""37169"": 99.31, ""37067"": 0.69}",Stokes|Forsyth,37169|37067,FALSE,FALSE,America/New_York
27022,36.51409,-80.21739,Lawsonville,NC,North Carolina,TRUE,,1081,12.6,37169,Stokes,"{""37169"": 100}",Stokes,37169,FALSE,FALSE,America/New_York
27023,36.09103,-80.45101,Lewisville,NC,North Carolina,TRUE,,13651,189.9,37067,Forsyth,"{""37067"": 100}",Forsyth,37067,FALSE,FALSE,America/New_York
27024,36.52399,-80.84027,Lowgap,NC,North Carolina,TRUE,,2243,19.9,37171,Surry,"{""37171"": 100}",Surry,37171,FALSE,FALSE,America/New_York
27025,36.3771,-79.97148,Madison,NC,North Carolina,TRUE,,12000,47.4,37157,Rockingham,"{""37157"": 71.89, ""37169"": 28.11}",Rockingham|Stokes,37157|37169,FALSE,FALSE,America/New_York
27027,36.4456,-79.98883,Mayodan,NC,North Carolina,TRUE,,4209,76.8,37157,Rockingham,"{""37157"": 100}",Rockingham,37157,FALSE,FALSE,America/New_York
27028,35.92433,-80.5742,Mocksville,NC,North Carolina,TRUE,,26025,52.1,37059,Davie,"{""37059"": 99.38, ""37097"": 0.62}",Davie|Iredell,37059|37097,FALSE,FALSE,America/New_York
27030,36.48836,-80.63013,Mount Airy,NC,North Carolina,TRUE,,37035,83.9,37171,Surry,"{""37171"": 95.73, ""37169"": 4.27}",Surry|Stokes,37171|37169,FALSE,FALSE,America/New_York
27040,36.16869,-80.38969,Pfafftown,NC,North Carolina,TRUE,,12778,187,37067,Forsyth,"{""37067"": 100}",Forsyth,37067,FALSE,FALSE,America/New_York
27041,36.41539,-80.48465,Pilot Mountain,NC,North Carolina,TRUE,,7475,47.8,37171,Surry,"{""37171"": 81.38, ""37169"": 18.62}",Surry|Stokes,37171|37169,FALSE,FALSE,America/New_York
27042,36.34177,-80.05434,Pine Hall,NC,North Carolina,TRUE,,177,9.5,37169,Stokes,"{""37169"": 100}",Stokes,37169,FALSE,FALSE,America/New_York
27043,36.33709,-80.44917,Pinnacle,NC,North Carolina,TRUE,,7224,40.8,37169,Stokes,"{""37169"": 52.27, ""37171"": 47.09, ""37067"": 0.64}",Stokes|Surry|Forsyth,37169|37171|37067,FALSE,FALSE,America/New_York
27045,36.23482,-80.29614,Rural Hall,NC,North Carolina,TRUE,,9906,163.7,37067,Forsyth,"{""37067"": 91.48, ""37169"": 8.52}",Forsyth|Stokes,37067|37169,FALSE,FALSE,America/New_York
27046,36.49228,-80.09223,Sandy Ridge,NC,North Carolina,TRUE,,2295,20.5,37169,Stokes,"{""37169"": 100}",Stokes,37169,FALSE,FALSE,America/New_York
27047,36.31178,-80.57786,Siloam,NC,North Carolina,TRUE,,1307,24.6,37171,Surry,"{""37171"": 100}",Surry,37171,FALSE,FALSE,America/New_York
27048,36.47611,-79.91295,Stoneville,NC,North Carolina,TRUE,,8324,38.6,37157,Rockingham,"{""37157"": 98.59, ""51089"": 1.41}",Rockingham|Henry,37157|51089,FALSE,FALSE,America/New_York
27050,36.23608,-80.40116,Tobaccoville,NC,North Carolina,TRUE,,3803,58.7,37067,Forsyth,"{""37067"": 87.0, ""37169"": 13.0}",Forsyth|Stokes,37067|37169,FALSE,FALSE,America/New_York
27051,36.18728,-80.16012,Walkertown,NC,North Carolina,TRUE,,8031,169.3,37067,Forsyth,"{""37067"": 100}",Forsyth,37067,FALSE,FALSE,America/New_York
27052,36.32259,-80.14552,Walnut Cove,NC,North Carolina,TRUE,,10726,41.8,37169,Stokes,"{""37169"": 89.04, ""37067"": 10.96}",Stokes|Forsyth,37169|37067,FALSE,FALSE,America/New_York
27053,36.47317,-80.34989,Westfield,NC,North Carolina,TRUE,,3025,16.8,37169,Stokes,"{""37169"": 96.53, ""37171"": 3.47}",Stokes|Surry,37169|37171,FALSE,FALSE,America/New_York
27054,35.79304,-80.59833,Woodleaf,NC,North Carolina,TRUE,,2017,27,37159,Rowan,"{""37159"": 100}",Rowan,37159,FALSE,FALSE,America/New_York
27055,36.11382,-80.63586,Yadkinville,NC,North Carolina,TRUE,,14997,52.1,37197,Yadkin,"{""37197"": 96.96, ""37059"": 1.73, ""37097"": 1.31}",Yadkin|Davie|Iredell,37197|37059|37097,FALSE,FALSE,America/New_York
27101,36.11204,-80.19889,Winston Salem,NC,North Carolina,TRUE,,20831,644.6,37067,Forsyth,"{""37067"": 100}",Forsyth,37067,FALSE,FALSE,America/New_York
27103,36.05822,-80.32125,Winston Salem,NC,North Carolina,TRUE,,34970,725.3,37067,Forsyth,"{""37067"": 100}",Forsyth,37067,FALSE,FALSE,America/New_York
27104,36.09465,-80.32501,Winston Salem,NC,North Carolina,TRUE,,30256,943.2,37067,Forsyth,"{""37067"": 100}",Forsyth,37067,FALSE,FALSE,America/New_York
27105,36.16294,-80.23521,Winston Salem,NC,North Carolina,TRUE,,41043,469.9,37067,Forsyth,"{""37067"": 100}",Forsyth,37067,FALSE,FALSE,America/New_York
27106,36.14255,-80.3228,Winston Salem,NC,North Carolina,TRUE,,48823,662.1,37067,Forsyth,"{""37067"": 100}",Forsyth,37067,FALSE,FALSE,America/New_York
27107,36.01488,-80.17819,Winston Salem,NC,North Carolina,TRUE,,50384,293.9,37057,Davidson,"{""37057"": 52.5, ""37067"": 47.5}",Davidson|Forsyth,37057|37067,FALSE,FALSE,America/New_York
27109,36.13371,-80.27539,Winston Salem,NC,North Carolina,TRUE,,2547,3231,37067,Forsyth,"{""37067"": 100}",Forsyth,37067,FALSE,FALSE,America/New_York
27110,36.08919,-80.225,Winston Salem,NC,North Carolina,TRUE,,2421,5112.6,37067,Forsyth,"{""37067"": 100}",Forsyth,37067,FALSE,FALSE,America/New_York
27127,36.02028,-80.27847,Winston Salem,NC,North Carolina,TRUE,,41958,551.8,37067,Forsyth,"{""37067"": 81.55, ""37057"": 18.45}",Forsyth|Davidson,37067|37057,FALSE,FALSE,America/New_York
27201,36.03258,-79.48418,Alamance,NC,North Carolina,TRUE,,121,213.8,37001,Alamance,"{""37001"": 100}",Alamance,37001,FALSE,FALSE,America/New_York
27202,36.18565,-79.50594,Altamahaw,NC,North Carolina,TRUE,,110,2381.2,37001,Alamance,"{""37001"": 100}",Alamance,37001,FALSE,FALSE,America/New_York
27203,35.73253,-79.78857,Asheboro,NC,North Carolina,TRUE,,21982,377.4,37151,Randolph,"{""37151"": 100}",Randolph,37151,FALSE,FALSE,America/New_York
27205,35.6399,-79.85094,Asheboro,NC,North Carolina,TRUE,,35933,62,37151,Randolph,"{""37151"": 100}",Randolph,37151,FALSE,FALSE,America/New_York
27207,35.6064,-79.38893,Bear Creek,NC,North Carolina,TRUE,,3726,16.6,37037,Chatham,"{""37037"": 100}",Chatham,37037,FALSE,FALSE,America/New_York
27208,35.56246,-79.54231,Bennett,NC,North Carolina,TRUE,,1615,15.2,37037,Chatham,"{""37037"": 52.95, ""37151"": 38.65, ""37125"": 8.4}",Chatham|Randolph|Moore,37037|37151|37125,FALSE,FALSE,America/New_York
27209,35.34254,-79.74936,Biscoe,NC,North Carolina,TRUE,,4521,37.4,37123,Montgomery,"{""37123"": 68.46, ""37125"": 31.54}",Montgomery|Moore,37123|37125,FALSE,FALSE,America/New_York
27212,36.46207,-79.27976,Blanch,NC,North Carolina,TRUE,,2084,15.6,37033,Caswell,"{""37033"": 100}",Caswell,37033,FALSE,FALSE,America/New_York
27213,35.6473,-79.40454,Bonlee,NC,North Carolina,TRUE,,60,37,37037,Chatham,"{""37037"": 100}",Chatham,37037,FALSE,FALSE,America/New_York
27214,36.21407,-79.68283,Browns Summit,NC,North Carolina,TRUE,,13510,101.7,37081,Guilford,"{""37081"": 89.07, ""37157"": 10.93}",Guilford|Rockingham,37081|37157,FALSE,FALSE,America/New_York
27215,36.03055,-79.48729,Burlington,NC,North Carolina,TRUE,,45982,281.5,37001,Alamance,"{""37001"": 88.5, ""37081"": 11.5}",Alamance|Guilford,37001|37081,FALSE,FALSE,America/New_York
27217,36.19221,-79.38404,Burlington,NC,North Carolina,TRUE,,40036,125.5,37001,Alamance,"{""37001"": 82.77, ""37033"": 17.23}",Alamance|Caswell,37001|37033,FALSE,FALSE,America/New_York
27229,35.24853,-79.79873,Candor,NC,North Carolina,TRUE,,3174,13.5,37123,Montgomery,"{""37123"": 97.25, ""37153"": 2.75}",Montgomery|Richmond,37123|37153,FALSE,FALSE,America/New_York
27231,36.20455,-79.17268,Cedar Grove,NC,North Carolina,TRUE,,2221,24.5,37135,Orange,"{""37135"": 97.23, ""37033"": 1.65, ""37145"": 1.12}",Orange|Caswell|Person,37135|37033|37145,FALSE,FALSE,America/New_York
27233,35.8882,-79.6988,Climax,NC,North Carolina,TRUE,,3068,48.6,37151,Randolph,"{""37151"": 66.48, ""37081"": 33.52}",Randolph|Guilford,37151|37081,FALSE,FALSE,America/New_York
27235,36.09734,-80.00871,Colfax,NC,North Carolina,TRUE,,5068,147.1,37081,Guilford,"{""37081"": 100}",Guilford,37081,FALSE,FALSE,America/New_York
27239,35.60566,-80.09024,Denton,NC,North Carolina,TRUE,,7681,19.1,37057,Davidson,"{""37057"": 60.4, ""37151"": 39.6}",Davidson|Randolph,37057|37151,FALSE,FALSE,America/New_York
27242,35.33645,-79.63761,Eagle Springs,NC,North Carolina,TRUE,,1271,9.7,37125,Moore,"{""37125"": 100}",Moore,37125,FALSE,FALSE,America/New_York
27243,36.07821,-79.1945,Efland,NC,North Carolina,TRUE,,5121,49.1,37135,Orange,"{""37135"": 100}",Orange,37135,FALSE,FALSE,America/New_York
27244,36.21402,-79.48747,Elon,NC,North Carolina,TRUE,,16092,115.5,37001,Alamance,"{""37001"": 47.03, ""37033"": 41.59, ""37081"": 11.37}",Alamance|Caswell|Guilford,37001|37033|37081,FALSE,FALSE,America/New_York
27247,35.46096,-79.78784,Ether,NC,North Carolina,TRUE,,228,42.4,37123,Montgomery,"{""37123"": 100}",Montgomery,37123,FALSE,FALSE,America/New_York
27248,35.78916,-79.70953,Franklinville,NC,North Carolina,TRUE,,4211,47.3,37151,Randolph,"{""37151"": 100}",Randolph,37151,FALSE,FALSE,America/New_York
27249,36.16014,-79.58134,Gibsonville,NC,North Carolina,TRUE,,12643,81.6,37081,Guilford,"{""37081"": 79.77, ""37001"": 8.89, ""37157"": 8.28, ""37033"": 3.06}",Guilford|Alamance|Rockingham|Caswell,37081|37001|37157|37033,FALSE,FALSE,America/New_York
27252,35.56033,-79.35563,Goldston,NC,North Carolina,TRUE,,1485,15.5,37037,Chatham,"{""37037"": 100}",Chatham,37037,FALSE,FALSE,America/New_York
27253,35.96239,-79.34581,Graham,NC,North Carolina,TRUE,,31282,147.5,37001,Alamance,"{""37001"": 100}",Alamance,37001,FALSE,FALSE,America/New_York
27256,35.56058,-79.2725,Gulf,NC,North Carolina,TRUE,,58,20.1,37037,Chatham,"{""37037"": 100}",Chatham,37037,FALSE,FALSE,America/New_York
27258,36.03401,-79.32623,Haw River,NC,North Carolina,TRUE,,7319,150.6,37001,Alamance,"{""37001"": 100}",Alamance,37001,FALSE,FALSE,America/New_York
27259,35.49149,-79.52624,Highfalls,NC,North Carolina,TRUE,,114,32.3,37125,Moore,"{""37125"": 100}",Moore,37125,FALSE,FALSE,America/New_York
27260,35.95473,-79.98697,High Point,NC,North Carolina,TRUE,,24878,776,37081,Guilford,"{""37081"": 96.49, ""37151"": 3.51}",Guilford|Randolph,37081|37151,FALSE,FALSE,America/New_York
27262,35.96191,-80.03845,High Point,NC,North Carolina,TRUE,,25652,750.9,37081,Guilford,"{""37081"": 66.52, ""37057"": 32.84, ""37151"": 0.64}",Guilford|Davidson|Randolph,37081|37057|37151,FALSE,FALSE,America/New_York
27263,35.90931,-79.93829,High Point,NC,North Carolina,TRUE,,21597,213.6,37151,Randolph,"{""37151"": 61.04, ""37081"": 38.96}",Randolph|Guilford,37151|37081,FALSE,FALSE,America/New_York
27265,36.00947,-80.03272,High Point,NC,North Carolina,TRUE,,50977,474.3,37081,Guilford,"{""37081"": 59.39, ""37057"": 37.67, ""37067"": 2.94}",Guilford|Davidson|Forsyth,37081|37057|37067,FALSE,FALSE,America/New_York
27268,35.97139,-79.99471,High Point,NC,North Carolina,TRUE,,995,3731.1,37081,Guilford,"{""37081"": 100}",Guilford,37081,FALSE,FALSE,America/New_York
27278,36.08673,-79.08778,Hillsborough,NC,North Carolina,TRUE,,28048,104.4,37135,Orange,"{""37135"": 95.99, ""37063"": 4.01}",Orange|Durham,37135|37063,FALSE,FALSE,America/New_York
27281,35.18538,-79.62689,Jackson Springs,NC,North Carolina,TRUE,,3271,18.5,37125,Moore,"{""37125"": 58.76, ""37123"": 28.99, ""37153"": 12.25}",Moore|Montgomery|Richmond,37125|37123|37153,FALSE,FALSE,America/New_York
27282,35.99656,-79.92869,Jamestown,NC,North Carolina,TRUE,,15365,403,37081,Guilford,"{""37081"": 100}",Guilford,37081,FALSE,FALSE,America/New_York
27283,35.95293,-79.63621,Julian,NC,North Carolina,TRUE,,3285,49.2,37081,Guilford,"{""37081"": 98.54, ""37151"": 1.46}",Guilford|Randolph,37081|37151,FALSE,FALSE,America/New_York
27284,36.11818,-80.07794,Kernersville,NC,North Carolina,TRUE,,56773,278.2,37067,Forsyth,"{""37067"": 82.89, ""37081"": 14.39, ""37057"": 2.72}",Forsyth|Guilford|Davidson,37067|37081|37057,FALSE,FALSE,America/New_York
27288,36.49812,-79.74587,Eden,NC,North Carolina,TRUE,,23604,127.6,37157,Rockingham,"{""37157"": 100}",Rockingham,37157,FALSE,FALSE,America/New_York
27291,36.40173,-79.16679,Leasburg,NC,North Carolina,TRUE,,1115,8.5,37033,Caswell,"{""37033"": 68.4, ""37145"": 31.6}",Caswell|Person,37033|37145,FALSE,FALSE,America/New_York
27292,35.73469,-80.20845,Lexington,NC,North Carolina,TRUE,,40338,108.2,37057,Davidson,"{""37057"": 99.36, ""37151"": 0.64}",Davidson|Randolph,37057|37151,FALSE,FALSE,America/New_York
27295,35.86756,-80.31623,Lexington,NC,North Carolina,TRUE,,38895,117.7,37057,Davidson,"{""37057"": 100}",Davidson,37057,FALSE,FALSE,America/New_York
27298,35.88563,-79.56816,Liberty,NC,North Carolina,TRUE,,11154,45.4,37151,Randolph,"{""37151"": 44.39, ""37001"": 30.87, ""37081"": 23.74, ""37037"": 1.0}",Randolph|Alamance|Guilford|Chatham,37151|37001|37081|37037,FALSE,FALSE,America/New_York
27299,35.75131,-80.38402,Linwood,NC,North Carolina,TRUE,,5260,73.9,37057,Davidson,"{""37057"": 100}",Davidson,37057,FALSE,FALSE,America/New_York
27301,36.11512,-79.66755,McLeansville,NC,North Carolina,TRUE,,10148,117.7,37081,Guilford,"{""37081"": 100}",Guilford,37081,FALSE,FALSE,America/New_York
27302,36.13749,-79.2647,Mebane,NC,North Carolina,TRUE,,34394,115.8,37001,Alamance,"{""37001"": 41.01, ""37135"": 35.99, ""37033"": 23.0}",Alamance|Orange|Caswell,37001|37135|37033,FALSE,FALSE,America/New_York
27305,36.52029,-79.22553,Milton,NC,North Carolina,TRUE,,1774,26.8,37033,Caswell,"{""37033"": 97.49, ""37145"": 2.51}",Caswell|Person,37033|37145,FALSE,FALSE,America/New_York
27306,35.22098,-79.97685,Mount Gilead,NC,North Carolina,TRUE,,5501,11.5,37123,Montgomery,"{""37123"": 77.29, ""37153"": 22.71}",Montgomery|Richmond,37123|37153,FALSE,FALSE,America/New_York
27310,36.17294,-79.99159,Oak Ridge,NC,North Carolina,TRUE,,8571,184.5,37081,Guilford,"{""37081"": 100}",Guilford,37081,FALSE,FALSE,America/New_York
27311,36.48137,-79.47577,Pelham,NC,North Carolina,TRUE,,3766,29.6,37033,Caswell,"{""37033"": 81.88, ""37157"": 18.12}",Caswell|Rockingham,37033|37157,FALSE,FALSE,America/New_York
27312,35.75446,-79.19648,Pittsboro,NC,North Carolina,TRUE,,22972,51.9,37037,Chatham,"{""37037"": 99.37, ""37001"": 0.63}",Chatham|Alamance,37037|37001,FALSE,FALSE,America/New_York
27313,35.92892,-79.75142,Pleasant Garden,NC,North Carolina,TRUE,,6784,93.7,37081,Guilford,"{""37081"": 69.83, ""37151"": 30.17}",Guilford|Randolph,37081|37151,FALSE,FALSE,America/New_York
27314,36.29072,-79.18594,Prospect Hill,NC,North Carolina,TRUE,,642,10.1,37033,Caswell,"{""37033"": 100}",Caswell,37033,FALSE,FALSE,America/New_York
27315,36.50613,-79.39173,Providence,NC,North Carolina,TRUE,,1590,23.9,37033,Caswell,"{""37033"": 100}",Caswell,37033,FALSE,FALSE,America/New_York
27316,35.68996,-79.62366,Ramseur,NC,North Carolina,TRUE,,7270,41.5,37151,Randolph,"{""37151"": 100}",Randolph,37151,FALSE,FALSE,America/New_York
27317,35.83809,-79.80376,Randleman,NC,North Carolina,TRUE,,18092,129.1,37151,Randolph,"{""37151"": 95.15, ""37081"": 4.85}",Randolph|Guilford,37151|37081,FALSE,FALSE,America/New_York
27320,36.3434,-79.6599,Reidsville,NC,North Carolina,TRUE,,37213,58.7,37157,Rockingham,"{""37157"": 87.72, ""37033"": 12.03, ""37081"": 0.25}",Rockingham|Caswell|Guilford,37157|37033|37081,FALSE,FALSE,America/New_York
27325,35.46236,-79.57249,Robbins,NC,North Carolina,TRUE,,7281,34,37125,Moore,"{""37125"": 98.84, ""37151"": 1.16}",Moore|Randolph,37125|37151,FALSE,FALSE,America/New_York
27326,36.45542,-79.55867,Ruffin,NC,North Carolina,TRUE,,3433,20.4,37157,Rockingham,"{""37157"": 68.8, ""37033"": 31.2}",Rockingham|Caswell,37157|37033,FALSE,FALSE,America/New_York
27330,35.51624,-79.18394,Sanford,NC,North Carolina,TRUE,,40657,74.5,37105,Lee,"{""37105"": 83.37, ""37037"": 8.42, ""37125"": 6.11, ""37085"": 2.1}",Lee|Chatham|Moore|Harnett,37105|37037|37125|37085,FALSE,FALSE,America/New_York
27332,35.37836,-79.13599,Sanford,NC,North Carolina,TRUE,,33892,122.2,37105,Lee,"{""37105"": 64.17, ""37085"": 35.83}",Lee|Harnett,37105|37085,FALSE,FALSE,America/New_York
27340,35.94557,-79.31141,Saxapahaw,NC,North Carolina,TRUE,,40,43.5,37001,Alamance,"{""37001"": 100}",Alamance,37001,FALSE,FALSE,America/New_York
27341,35.52467,-79.70014,Seagrove,NC,North Carolina,TRUE,,4128,16.7,37151,Randolph,"{""37151"": 63.49, ""37125"": 28.68, ""37123"": 7.83}",Randolph|Moore|Montgomery,37151|37125|37123,FALSE,FALSE,America/New_York
27342,36.06641,-79.6186,Sedalia,NC,North Carolina,TRUE,,111,194.2,37081,Guilford,"{""37081"": 100}",Guilford,37081,FALSE,FALSE,America/New_York
27343,36.50229,-79.08892,Semora,NC,North Carolina,TRUE,,1510,12.5,37145,Person,"{""37145"": 77.45, ""37033"": 22.55}",Person|Caswell,37145|37033,FALSE,FALSE,America/New_York
27344,35.7289,-79.43366,Siler City,NC,North Carolina,TRUE,,18894,43.9,37037,Chatham,"{""37037"": 94.94, ""37151"": 5.06}",Chatham|Randolph,37037|37151,FALSE,FALSE,America/New_York
27349,35.89845,-79.41202,Snow Camp,NC,North Carolina,TRUE,,6347,38.5,37001,Alamance,"{""37001"": 91.34, ""37037"": 8.66}",Alamance|Chatham,37001|37037,FALSE,FALSE,America/New_York
27350,35.80631,-79.88917,Sophia,NC,North Carolina,TRUE,,5603,59.4,37151,Randolph,"{""37151"": 100}",Randolph,37151,FALSE,FALSE,America/New_York
27351,35.65976,-80.26786,Southmont,NC,North Carolina,TRUE,,222,424.1,37057,Davidson,"{""37057"": 100}",Davidson,37057,FALSE,FALSE,America/New_York
27355,35.78859,-79.5678,Staley,NC,North Carolina,TRUE,,2709,30.3,37151,Randolph,"{""37151"": 68.49, ""37037"": 31.51}",Randolph|Chatham,37151|37037,FALSE,FALSE,America/New_York
27356,35.43991,-79.7982,Star,NC,North Carolina,TRUE,,3020,20.6,37123,Montgomery,"{""37123"": 78.79, ""37125"": 21.21}",Montgomery|Moore,37123|37125,FALSE,FALSE,America/New_York
27357,36.26844,-79.97641,Stokesdale,NC,North Carolina,TRUE,,9384,84.9,37157,Rockingham,"{""37157"": 63.45, ""37081"": 36.42, ""37169"": 0.13}",Rockingham|Guilford|Stokes,37157|37081|37169,FALSE,FALSE,America/New_York
27358,36.22723,-79.88124,Summerfield,NC,North Carolina,TRUE,,15472,113.2,37081,Guilford,"{""37081"": 70.99, ""37157"": 29.01}",Guilford|Rockingham,37081|37157,FALSE,FALSE,America/New_York
27360,35.85684,-80.09987,Thomasville,NC,North Carolina,TRUE,,47432,207,37057,Davidson,"{""37057"": 87.83, ""37151"": 12.17}",Davidson|Randolph,37057|37151,FALSE,FALSE,America/New_York
27370,35.8116,-79.99133,Trinity,NC,North Carolina,TRUE,,14951,96.6,37151,Randolph,"{""37151"": 100}",Randolph,37151,FALSE,FALSE,America/New_York
27371,35.42489,-79.94912,Troy,NC,North Carolina,TRUE,,7628,20.5,37123,Montgomery,"{""37123"": 92.37, ""37151"": 7.63}",Montgomery|Randolph,37123|37151,FALSE,FALSE,America/New_York
27374,35.91752,-80.25777,Welcome,NC,North Carolina,TRUE,,260,156.6,37057,Davidson,"{""37057"": 100}",Davidson,37057,FALSE,FALSE,America/New_York
27376,35.25607,-79.53184,West End,NC,North Carolina,TRUE,,8915,50.2,37125,Moore,"{""37125"": 100}",Moore,37125,FALSE,FALSE,America/New_York
27377,36.03728,-79.60221,Whitsett,NC,North Carolina,TRUE,,9854,147.8,37081,Guilford,"{""37081"": 100}",Guilford,37081,FALSE,FALSE,America/New_York
27379,36.37653,-79.34653,Yanceyville,NC,North Carolina,TRUE,,4570,19.9,37033,Caswell,"{""37033"": 100}",Caswell,37033,FALSE,FALSE,America/New_York
27401,36.06995,-79.76724,Greensboro,NC,North Carolina,TRUE,,21253,1416.4,37081,Guilford,"{""37081"": 100}",Guilford,37081,FALSE,FALSE,America/New_York
27403,36.06406,-79.82538,Greensboro,NC,North Carolina,TRUE,,19553,1310,37081,Guilford,"{""37081"": 100}",Guilford,37081,FALSE,FALSE,America/New_York
27405,36.11373,-79.73463,Greensboro,NC,North Carolina,TRUE,,51962,639.5,37081,Guilford,"{""37081"": 100}",Guilford,37081,FALSE,FALSE,America/New_York
27406,35.9982,-79.76686,Greensboro,NC,North Carolina,TRUE,,64386,358.4,37081,Guilford,"{""37081"": 100}",Guilford,37081,FALSE,FALSE,America/New_York
27407,36.01124,-79.87588,Greensboro,NC,North Carolina,TRUE,,54257,711.4,37081,Guilford,"{""37081"": 100}",Guilford,37081,FALSE,FALSE,America/New_York
27408,36.10321,-79.81411,Greensboro,NC,North Carolina,TRUE,,16399,823.6,37081,Guilford,"{""37081"": 100}",Guilford,37081,FALSE,FALSE,America/New_York
27409,36.09242,-79.94431,Greensboro,NC,North Carolina,TRUE,,17070,331,37081,Guilford,"{""37081"": 100}",Guilford,37081,FALSE,FALSE,America/New_York
27410,36.11826,-79.89223,Greensboro,NC,North Carolina,TRUE,,54951,665.8,37081,Guilford,"{""37081"": 100}",Guilford,37081,FALSE,FALSE,America/New_York
27411,36.07665,-79.77157,Greensboro,NC,North Carolina,TRUE,,1697,4836.5,37081,Guilford,"{""37081"": 100}",Guilford,37081,FALSE,FALSE,America/New_York
27412,36.06903,-79.81062,Greensboro,NC,North Carolina,TRUE,,3101,4030.2,37081,Guilford,"{""37081"": 100}",Guilford,37081,FALSE,FALSE,America/New_York
27455,36.18283,-79.80794,Greensboro,NC,North Carolina,TRUE,,29259,393.3,37081,Guilford,"{""37081"": 100}",Guilford,37081,FALSE,FALSE,America/New_York
27501,35.48684,-78.68419,Angier,NC,North Carolina,TRUE,,22339,137.2,37085,Harnett,"{""37085"": 61.85, ""37101"": 37.33, ""37183"": 0.82}",Harnett|Johnston|Wake,37085|37101|37183,FALSE,FALSE,America/New_York
27502,35.72123,-78.90828,Apex,NC,North Carolina,TRUE,,47943,653.4,37183,Wake,"{""37183"": 79.53, ""37037"": 20.47}",Wake|Chatham,37183|37037,FALSE,FALSE,America/New_York
27503,36.15832,-78.87757,Bahama,NC,North Carolina,TRUE,,6030,61.7,37063,Durham,"{""37063"": 100}",Durham,37063,FALSE,FALSE,America/New_York
27504,35.39963,-78.51863,Benson,NC,North Carolina,TRUE,,15057,64.7,37101,Johnston,"{""37101"": 97.15, ""37085"": 2.85}",Johnston|Harnett,37101|37085,FALSE,FALSE,America/New_York
27505,35.414,-79.00198,Broadway,NC,North Carolina,TRUE,,7541,54.1,37085,Harnett,"{""37085"": 96.27, ""37105"": 3.73}",Harnett|Lee,37085|37105,FALSE,FALSE,America/New_York
27506,35.40875,-78.73896,Buies Creek,NC,North Carolina,TRUE,,990,1397.1,37085,Harnett,"{""37085"": 100}",Harnett,37085,FALSE,FALSE,America/New_York
27507,36.51253,-78.55143,Bullock,NC,North Carolina,TRUE,,1935,13.8,37077,Granville,"{""37077"": 78.26, ""37181"": 21.74}",Granville|Vance,37077|37181,FALSE,FALSE,America/New_York
27508,35.95882,-78.25105,Bunn,NC,North Carolina,TRUE,,2409,87.9,37069,Franklin,"{""37069"": 100}",Franklin,37069,FALSE,FALSE,America/New_York
27509,36.12889,-78.77604,Butner,NC,North Carolina,TRUE,,7196,189.5,37077,Granville,"{""37077"": 100}",Granville,37077,FALSE,FALSE,America/New_York
27510,35.91147,-79.08211,Carrboro,NC,North Carolina,TRUE,,14131,1706,37135,Orange,"{""37135"": 100}",Orange,37135,FALSE,FALSE,America/New_York
27511,35.76324,-78.78437,Cary,NC,North Carolina,TRUE,,32880,1082,37183,Wake,"{""37183"": 100}",Wake,37183,FALSE,FALSE,America/New_York
27513,35.80269,-78.80159,Cary,NC,North Carolina,TRUE,,47195,1111.5,37183,Wake,"{""37183"": 100}",Wake,37183,FALSE,FALSE,America/New_York
27514,35.96776,-79.04406,Chapel Hill,NC,North Carolina,TRUE,,32149,632.9,37135,Orange,"{""37135"": 100}",Orange,37135,FALSE,FALSE,America/New_York
27516,35.91239,-79.15156,Chapel Hill,NC,North Carolina,TRUE,,44697,184.6,37135,Orange,"{""37135"": 83.47, ""37037"": 16.53}",Orange|Chatham,37135|37037,FALSE,FALSE,America/New_York
27517,35.84389,-79.03186,Chapel Hill,NC,North Carolina,TRUE,,27761,233,37037,Chatham,"{""37037"": 61.14, ""37135"": 21.46, ""37063"": 17.4}",Chatham|Orange|Durham,37037|37135|37063,FALSE,FALSE,America/New_York
27518,35.72927,-78.7736,Cary,NC,North Carolina,TRUE,,19102,745.2,37183,Wake,"{""37183"": 100}",Wake,37183,FALSE,FALSE,America/New_York
27519,35.80815,-78.88711,Cary,NC,North Carolina,TRUE,,66046,1144,37183,Wake,"{""37183"": 91.86, ""37037"": 8.14}",Wake|Chatham,37183|37037,FALSE,FALSE,America/New_York
27520,35.61274,-78.47075,Clayton,NC,North Carolina,TRUE,,46059,251.3,37101,Johnston,"{""37101"": 95.9, ""37183"": 4.1}",Johnston|Wake,37101|37183,FALSE,FALSE,America/New_York
27521,35.41298,-78.65847,Coats,NC,North Carolina,TRUE,,6909,102.6,37085,Harnett,"{""37085"": 100}",Harnett,37085,FALSE,FALSE,America/New_York
27522,36.10565,-78.67676,Creedmoor,NC,North Carolina,TRUE,,12308,65.7,37077,Granville,"{""37077"": 84.25, ""37183"": 15.75}",Granville|Wake,37077|37183,FALSE,FALSE,America/New_York
27523,35.77102,-78.95367,Apex,NC,North Carolina,TRUE,,16802,168.3,37037,Chatham,"{""37037"": 70.4, ""37183"": 29.6}",Chatham|Wake,37037|37183,FALSE,FALSE,America/New_York
27524,35.39392,-78.37948,Four Oaks,NC,North Carolina,TRUE,,13976,40.1,37101,Johnston,"{""37101"": 92.07, ""37191"": 7.93}",Johnston|Wayne,37101|37191,FALSE,FALSE,America/New_York
27525,36.11721,-78.46997,Franklinton,NC,North Carolina,TRUE,,15124,62.2,37069,Franklin,"{""37069"": 72.16, ""37077"": 27.84}",Franklin|Granville,37069|37077,FALSE,FALSE,America/New_York
27526,35.54179,-78.8274,Fuquay Varina,NC,North Carolina,TRUE,,56866,223.7,37085,Harnett,"{""37085"": 59.64, ""37183"": 40.36}",Harnett|Wake,37085|37183,FALSE,FALSE,America/New_York
27527,35.65767,-78.38336,Clayton,NC,North Carolina,TRUE,,34321,300.6,37101,Johnston,"{""37101"": 100}",Johnston,37101,FALSE,FALSE,America/New_York
27529,35.65048,-78.58167,Garner,NC,North Carolina,TRUE,,53223,356.2,37183,Wake,"{""37183"": 66.54, ""37101"": 33.46}",Wake|Johnston,37183|37101,FALSE,FALSE,America/New_York
27530,35.36825,-78.07511,Goldsboro,NC,North Carolina,TRUE,,37447,135.7,37191,Wayne,"{""37191"": 100}",Wayne,37191,FALSE,FALSE,America/New_York
27531,35.34362,-77.96743,Goldsboro,NC,North Carolina,TRUE,,642,71.3,37191,Wayne,"{""37191"": 100}",Wayne,37191,FALSE,FALSE,America/New_York
27533,35.38746,-78.03896,Goldsboro,NC,North Carolina,TRUE,,216,553.5,37191,Wayne,"{""37191"": 100}",Wayne,37191,FALSE,FALSE,America/New_York
27534,35.37153,-77.90646,Goldsboro,NC,North Carolina,TRUE,,30742,162.5,37191,Wayne,"{""37191"": 99.22, ""37079"": 0.78}",Wayne|Greene,37191|37079,FALSE,FALSE,America/New_York
27536,36.32645,-78.40754,Henderson,NC,North Carolina,TRUE,,15383,491,37181,Vance,"{""37181"": 100}",Vance,37181,FALSE,FALSE,America/New_York
27537,36.35343,-78.38887,Henderson,NC,North Carolina,TRUE,,23698,49.3,37181,Vance,"{""37181"": 88.38, ""37069"": 7.61, ""37185"": 4.01}",Vance|Franklin|Warren,37181|37069|37185,FALSE,FALSE,America/New_York
27539,35.67713,-78.81269,Apex,NC,North Carolina,TRUE,,27212,338.9,37183,Wake,"{""37183"": 100}",Wake,37183,FALSE,FALSE,America/New_York
27540,35.6103,-78.87332,Holly Springs,NC,North Carolina,TRUE,,44843,360.8,37183,Wake,"{""37183"": 73.0, ""37085"": 19.92, ""37037"": 7.08}",Wake|Harnett|Chatham,37183|37085|37037,FALSE,FALSE,America/New_York
27541,36.26176,-79.0866,Hurdle Mills,NC,North Carolina,TRUE,,3522,19.6,37145,Person,"{""37145"": 68.12, ""37135"": 31.51, ""37033"": 0.37}",Person|Orange|Caswell,37145|37135|37033,FALSE,FALSE,America/New_York
27542,35.61776,-78.1377,Kenly,NC,North Carolina,TRUE,,9610,41.2,37101,Johnston,"{""37101"": 63.32, ""37195"": 28.51, ""37191"": 8.17}",Johnston|Wilson|Wayne,37101|37195|37191,FALSE,FALSE,America/New_York
27544,36.20018,-78.44097,Kittrell,NC,North Carolina,TRUE,,4319,27.7,37181,Vance,"{""37181"": 50.9, ""37069"": 29.73, ""37077"": 19.37}",Vance|Franklin|Granville,37181|37069|37077,FALSE,FALSE,America/New_York
27545,35.78513,-78.48045,Knightdale,NC,North Carolina,TRUE,,32684,398.8,37183,Wake,"{""37183"": 100}",Wake,37183,FALSE,FALSE,America/New_York
27546,35.38458,-78.86626,Lillington,NC,North Carolina,TRUE,,20534,64.7,37085,Harnett,"{""37085"": 100}",Harnett,37085,FALSE,FALSE,America/New_York
27549,36.10439,-78.24282,Louisburg,NC,North Carolina,TRUE,,25193,42,37069,Franklin,"{""37069"": 100}",Franklin,37069,FALSE,FALSE,America/New_York
27551,36.43339,-78.05231,Macon,NC,North Carolina,TRUE,,1962,9.2,37185,Warren,"{""37185"": 100}",Warren,37185,FALSE,FALSE,America/New_York
27553,36.48047,-78.30643,Manson,NC,North Carolina,TRUE,,1613,16.1,37185,Warren,"{""37185"": 58.84, ""37181"": 41.16}",Warren|Vance,37185|37181,FALSE,FALSE,America/New_York
27555,35.56242,-78.20353,Micro,NC,North Carolina,TRUE,,477,439.2,37101,Johnston,"{""37101"": 100}",Johnston,37101,FALSE,FALSE,America/New_York
27556,36.39869,-78.31294,Middleburg,NC,North Carolina,TRUE,,225,41.3,37181,Vance,"{""37181"": 100}",Vance,37181,FALSE,FALSE,America/New_York
27557,35.77941,-78.2,Middlesex,NC,North Carolina,TRUE,,8498,48.9,37127,Nash,"{""37127"": 64.63, ""37101"": 32.3, ""37195"": 2.82, ""37069"": 0.25}",Nash|Johnston|Wilson|Franklin,37127|37101|37195|37069,FALSE,FALSE,America/New_York
27559,35.6299,-79.0973,Moncure,NC,North Carolina,TRUE,,2199,16.8,37037,Chatham,"{""37037"": 100}",Chatham,37037,FALSE,FALSE,America/New_York
27560,35.85845,-78.82544,Morrisville,NC,North Carolina,TRUE,,38567,543.2,37183,Wake,"{""37183"": 87.12, ""37063"": 12.88}",Wake|Durham,37183|37063,FALSE,FALSE,America/New_York
27562,35.64157,-78.98141,New Hill,NC,North Carolina,TRUE,,4345,30.9,37037,Chatham,"{""37037"": 60.03, ""37183"": 39.97}",Chatham|Wake,37037|37183,FALSE,FALSE,America/New_York
27563,36.4312,-78.23343,Norlina,NC,North Carolina,TRUE,,5689,30.8,37185,Warren,"{""37185"": 97.02, ""37181"": 2.98}",Warren|Vance,37185|37181,FALSE,FALSE,America/New_York
27565,36.36203,-78.64604,Oxford,NC,North Carolina,TRUE,,25938,31.4,37077,Granville,"{""37077"": 94.74, ""37181"": 4.03, ""37145"": 1.23}",Granville|Vance|Person,37077|37181|37145,FALSE,FALSE,America/New_York
27568,35.51132,-78.24299,Pine Level,NC,North Carolina,TRUE,,1509,479.7,37101,Johnston,"{""37101"": 100}",Johnston,37101,FALSE,FALSE,America/New_York
27569,35.43306,-78.17432,Princeton,NC,North Carolina,TRUE,,8963,43.2,37101,Johnston,"{""37101"": 79.02, ""37191"": 20.98}",Johnston|Wayne,37101|37191,FALSE,FALSE,America/New_York
27570,36.43861,-78.23662,Ridgeway,NC,North Carolina,TRUE,,0,0,37185,Warren,"{""37185"": 100}",Warren,37185,FALSE,FALSE,America/New_York
27571,35.92151,-78.4647,Rolesville,NC,North Carolina,TRUE,,8492,673.3,37183,Wake,"{""37183"": 100}",Wake,37183,FALSE,FALSE,America/New_York
27572,36.24872,-78.88045,Rougemont,NC,North Carolina,TRUE,,6857,24.9,37145,Person,"{""37145"": 35.78, ""37063"": 24.48, ""37135"": 23.55, ""37077"": 16.19}",Person|Durham|Orange|Granville,37145|37063|37135|37077,FALSE,FALSE,America/New_York
27573,36.3978,-78.97476,Roxboro,NC,North Carolina,TRUE,,11664,260.2,37145,Person,"{""37145"": 100}",Person,37145,FALSE,FALSE,America/New_York
27574,36.43166,-78.94147,Roxboro,NC,North Carolina,TRUE,,14693,29.6,37145,Person,"{""37145"": 97.36, ""37077"": 2.64}",Person|Granville,37145|37077,FALSE,FALSE,America/New_York
27576,35.58297,-78.25776,Selma,NC,North Carolina,TRUE,,20011,95,37101,Johnston,"{""37101"": 100}",Johnston,37101,FALSE,FALSE,America/New_York
27577,35.49166,-78.3446,Smithfield,NC,North Carolina,TRUE,,26778,99.7,37101,Johnston,"{""37101"": 100}",Johnston,37101,FALSE,FALSE,America/New_York
27581,36.20155,-78.73355,Stem,NC,North Carolina,TRUE,,3774,40.3,37077,Granville,"{""37077"": 100}",Granville,37077,FALSE,FALSE,America/New_York
27582,36.44736,-78.5691,Stovall,NC,North Carolina,TRUE,,358,136.3,37077,Granville,"{""37077"": 100}",Granville,37077,FALSE,FALSE,America/New_York
27583,36.29723,-78.93153,Timberlake,NC,North Carolina,TRUE,,6935,54.4,37145,Person,"{""37145"": 95.8, ""37135"": 2.88, ""37063"": 1.32}",Person|Orange|Durham,37145|37135|37063,FALSE,FALSE,America/New_York
27584,36.4934,-78.44601,Townsville,NC,North Carolina,TRUE,,173,15.1,37181,Vance,"{""37181"": 100}",Vance,37181,FALSE,FALSE,America/New_York
27587,35.98098,-78.54963,Wake Forest,NC,North Carolina,TRUE,,78666,289,37183,Wake,"{""37183"": 88.25, ""37077"": 9.18, ""37069"": 2.57}",Wake|Granville|Franklin,37183|37077|37069,FALSE,FALSE,America/New_York
27589,36.33461,-78.12819,Warrenton,NC,North Carolina,TRUE,,6412,14.6,37185,Warren,"{""37185"": 96.36, ""37069"": 3.64}",Warren|Franklin,37185|37069,FALSE,FALSE,America/New_York
27591,35.7859,-78.38638,Wendell,NC,North Carolina,TRUE,,25877,149.9,37183,Wake,"{""37183"": 69.75, ""37101"": 30.25}",Wake|Johnston,37183|37101,FALSE,FALSE,America/New_York
27592,35.55922,-78.67164,Willow Spring,NC,North Carolina,TRUE,,19011,187.1,37183,Wake,"{""37183"": 60.21, ""37101"": 39.25, ""37085"": 0.54}",Wake|Johnston|Harnett,37183|37101|37085,FALSE,FALSE,America/New_York
27593,35.58579,-78.36231,Wilsons Mills,NC,North Carolina,TRUE,,0,0,37101,Johnston,"{""37101"": 100}",Johnston,37101,FALSE,FALSE,America/New_York
27594,36.47294,-78.16622,Wise,NC,North Carolina,TRUE,,80,22.5,37185,Warren,"{""37185"": 100}",Warren,37185,FALSE,FALSE,America/New_York
27596,36.00906,-78.44448,Youngsville,NC,North Carolina,TRUE,,18806,137.5,37069,Franklin,"{""37069"": 90.88, ""37183"": 5.86, ""37077"": 3.26}",Franklin|Wake|Granville,37069|37183|37077,FALSE,FALSE,America/New_York
27597,35.84034,-78.30303,Zebulon,NC,North Carolina,TRUE,,27962,91.1,37183,Wake,"{""37183"": 42.2, ""37069"": 28.46, ""37101"": 22.91, ""37127"": 6.43}",Wake|Franklin|Johnston|Nash,37183|37069|37101|37127,FALSE,FALSE,America/New_York
27599,35.90394,-79.05234,Chapel Hill,NC,North Carolina,TRUE,,0,0,37135,Orange,"{""37135"": 100}",Orange,37135,FALSE,FALSE,America/New_York
27601,35.7737,-78.63453,Raleigh,NC,North Carolina,TRUE,,10801,2293.3,37183,Wake,"{""37183"": 100}",Wake,37183,FALSE,FALSE,America/New_York
27603,35.66408,-78.66186,Raleigh,NC,North Carolina,TRUE,,53535,402.1,37183,Wake,"{""37183"": 95.39, ""37101"": 4.61}",Wake|Johnston,37183|37101,FALSE,FALSE,America/New_York
27604,35.82011,-78.56369,Raleigh,NC,North Carolina,TRUE,,43924,886.6,37183,Wake,"{""37183"": 100}",Wake,37183,FALSE,FALSE,America/New_York
27605,35.79046,-78.65452,Raleigh,NC,North Carolina,TRUE,,6085,2294.9,37183,Wake,"{""37183"": 100}",Wake,37183,FALSE,FALSE,America/New_York
27606,35.73991,-78.71833,Raleigh,NC,North Carolina,TRUE,,45546,718.8,37183,Wake,"{""37183"": 100}",Wake,37183,FALSE,FALSE,America/New_York
27607,35.82145,-78.72697,Raleigh,NC,North Carolina,TRUE,,26026,578.4,37183,Wake,"{""37183"": 100}",Wake,37183,FALSE,FALSE,America/New_York
27608,35.81004,-78.64815,Raleigh,NC,North Carolina,TRUE,,12069,1350.6,37183,Wake,"{""37183"": 100}",Wake,37183,FALSE,FALSE,America/New_York
27609,35.8437,-78.63282,Raleigh,NC,North Carolina,TRUE,,35038,1236.4,37183,Wake,"{""37183"": 100}",Wake,37183,FALSE,FALSE,America/New_York
27610,35.7435,-78.54644,Raleigh,NC,North Carolina,TRUE,,81219,694.5,37183,Wake,"{""37183"": 99.81, ""37101"": 0.19}",Wake|Johnston,37183|37101,FALSE,FALSE,America/New_York
27612,35.85034,-78.70387,Raleigh,NC,North Carolina,TRUE,,39546,919.5,37183,Wake,"{""37183"": 100}",Wake,37183,FALSE,FALSE,America/New_York
27613,35.92633,-78.71183,Raleigh,NC,North Carolina,TRUE,,44575,674.9,37183,Wake,"{""37183"": 83.69, ""37063"": 16.31}",Wake|Durham,37183|37063,FALSE,FALSE,America/New_York
27614,35.94739,-78.62059,Raleigh,NC,North Carolina,TRUE,,33609,467.9,37183,Wake,"{""37183"": 100}",Wake,37183,FALSE,FALSE,America/New_York
27615,35.89772,-78.636,Raleigh,NC,North Carolina,TRUE,,46182,943.6,37183,Wake,"{""37183"": 100}",Wake,37183,FALSE,FALSE,America/New_York
27616,35.86735,-78.53792,Raleigh,NC,North Carolina,TRUE,,57599,988.7,37183,Wake,"{""37183"": 100}",Wake,37183,FALSE,FALSE,America/New_York
27617,35.90723,-78.77221,Raleigh,NC,North Carolina,TRUE,,19202,896.3,37183,Wake,"{""37183"": 97.55, ""37063"": 2.45}",Wake|Durham,37183|37063,FALSE,FALSE,America/New_York
27695,35.78558,-78.679,Raleigh,NC,North Carolina,TRUE,,2164,3298.3,37183,Wake,"{""37183"": 100}",Wake,37183,FALSE,FALSE,America/New_York
27697,35.7788,-78.62297,Raleigh,NC,North Carolina,TRUE,,0,0,37183,Wake,"{""37183"": 100}",Wake,37183,FALSE,FALSE,America/New_York
27701,35.99858,-78.89872,Durham,NC,North Carolina,TRUE,,24380,1793.2,37063,Durham,"{""37063"": 100}",Durham,37063,FALSE,FALSE,America/New_York
27703,35.96299,-78.80452,Durham,NC,North Carolina,TRUE,,60483,475.9,37063,Durham,"{""37063"": 99.38, ""37183"": 0.62}",Durham|Wake,37063|37183,FALSE,FALSE,America/New_York
27704,36.04088,-78.83007,Durham,NC,North Carolina,TRUE,,41966,391.1,37063,Durham,"{""37063"": 100}",Durham,37063,FALSE,FALSE,America/New_York
27705,36.0259,-78.98046,Durham,NC,North Carolina,TRUE,,46880,430.3,37063,Durham,"{""37063"": 53.04, ""37135"": 46.96}",Durham|Orange,37063|37135,FALSE,FALSE,America/New_York
27707,35.95463,-78.95451,Durham,NC,North Carolina,TRUE,,50696,945.3,37063,Durham,"{""37063"": 91.45, ""37135"": 8.55}",Durham|Orange,37063|37135,FALSE,FALSE,America/New_York
27708,36.00009,-78.94305,Durham,NC,North Carolina,TRUE,,3209,2844.9,37063,Durham,"{""37063"": 100}",Durham,37063,FALSE,FALSE,America/New_York
27709,35.91441,-78.86666,Durham,NC,North Carolina,TRUE,,0,0,37063,Durham,"{""37063"": 100}",Durham,37063,FALSE,FALSE,America/New_York
27712,36.09606,-78.90481,Durham,NC,North Carolina,TRUE,,23150,269,37063,Durham,"{""37063"": 98.31, ""37135"": 1.69}",Durham|Orange,37063|37135,FALSE,FALSE,America/New_York
27713,35.88401,-78.936,Durham,NC,North Carolina,TRUE,,57157,624.2,37063,Durham,"{""37063"": 66.07, ""37037"": 33.42, ""37183"": 0.51}",Durham|Chatham|Wake,37063|37037|37183,FALSE,FALSE,America/New_York
27801,35.91209,-77.73656,Rocky Mount,NC,North Carolina,TRUE,,19356,111.9,37065,Edgecombe,"{""37065"": 100}",Edgecombe,37065,FALSE,FALSE,America/New_York
27803,35.89627,-77.85407,Rocky Mount,NC,North Carolina,TRUE,,18991,174.9,37127,Nash,"{""37127"": 84.98, ""37195"": 9.29, ""37065"": 5.73}",Nash|Wilson|Edgecombe,37127|37195|37065,FALSE,FALSE,America/New_York
27804,35.98958,-77.84778,Rocky Mount,NC,North Carolina,TRUE,,29646,265.9,37127,Nash,"{""37127"": 100}",Nash,37127,FALSE,FALSE,America/New_York
27805,36.20863,-77.08861,Aulander,NC,North Carolina,TRUE,,3321,11.8,37015,Bertie,"{""37015"": 60.76, ""37091"": 39.24}",Bertie|Hertford,37015|37091,FALSE,FALSE,America/New_York
27806,35.29713,-76.76264,Aurora,NC,North Carolina,TRUE,,2248,6.4,37013,Beaufort,"{""37013"": 100}",Beaufort,37013,FALSE,FALSE,America/New_York
27807,35.80915,-78.0917,Bailey,NC,North Carolina,TRUE,,6137,49.2,37127,Nash,"{""37127"": 92.99, ""37195"": 7.01}",Nash|Wilson,37127|37195,FALSE,FALSE,America/New_York
27808,35.47228,-76.76494,Bath,NC,North Carolina,TRUE,,2208,18.5,37013,Beaufort,"{""37013"": 100}",Beaufort,37013,FALSE,FALSE,America/New_York
27809,36.01932,-77.74085,Battleboro,NC,North Carolina,TRUE,,4209,21.2,37065,Edgecombe,"{""37065"": 62.78, ""37127"": 37.22}",Edgecombe|Nash,37065|37127,FALSE,FALSE,America/New_York
27810,35.58637,-76.49706,Belhaven,NC,North Carolina,TRUE,,3736,7.1,37095,Hyde,"{""37095"": 60.22, ""37013"": 39.78}",Hyde|Beaufort,37095|37013,FALSE,FALSE,America/New_York
27812,35.80506,-77.37616,Bethel,NC,North Carolina,TRUE,,2232,14.7,37147,Pitt,"{""37147"": 65.16, ""37065"": 26.54, ""37117"": 8.3}",Pitt|Edgecombe|Martin,37147|37065|37117,FALSE,FALSE,America/New_York
27813,35.63083,-77.93587,Black Creek,NC,North Carolina,TRUE,,735,257.9,37195,Wilson,"{""37195"": 100}",Wilson,37195,FALSE,FALSE,America/New_York
27814,35.37987,-76.93513,Blounts Creek,NC,North Carolina,TRUE,,1685,8.5,37013,Beaufort,"{""37013"": 100}",Beaufort,37013,FALSE,FALSE,America/New_York
27815,35.92473,-77.69304,Rocky Mount,NC,North Carolina,TRUE,,0,0,37065,Edgecombe,"{""37065"": 100}",Edgecombe,37065,FALSE,FALSE,America/New_York
27816,36.10732,-78.07245,Castalia,NC,North Carolina,TRUE,,3199,19,37069,Franklin,"{""37069"": 51.81, ""37127"": 48.19}",Franklin|Nash,37069|37127,FALSE,FALSE,America/New_York
27817,35.4506,-77.0825,Chocowinity,NC,North Carolina,TRUE,,7285,27.9,37013,Beaufort,"{""37013"": 100}",Beaufort,37013,FALSE,FALSE,America/New_York
27818,36.50275,-77.01394,Como,NC,North Carolina,TRUE,,1189,7.5,37091,Hertford,"{""37091"": 100}",Hertford,37091,FALSE,FALSE,America/New_York
27819,35.81412,-77.45731,Conetoe,NC,North Carolina,TRUE,,671,186.3,37065,Edgecombe,"{""37065"": 100}",Edgecombe,37065,FALSE,FALSE,America/New_York
27820,36.4154,-77.24431,Conway,NC,North Carolina,TRUE,,2276,15.4,37131,Northampton,"{""37131"": 100}",Northampton,37131,FALSE,FALSE,America/New_York
27821,35.3237,-76.87392,Edward,NC,North Carolina,TRUE,,40,2.4,37013,Beaufort,"{""37013"": 100}",Beaufort,37013,FALSE,FALSE,America/New_York
27822,35.80402,-77.83868,Elm City,NC,North Carolina,TRUE,,7870,34.7,37195,Wilson,"{""37195"": 74.63, ""37127"": 16.58, ""37065"": 8.79}",Wilson|Nash|Edgecombe,37195|37127|37065,FALSE,FALSE,America/New_York
27823,36.20616,-77.71685,Enfield,NC,North Carolina,TRUE,,6786,14.3,37083,Halifax,"{""37083"": 100}",Halifax,37083,FALSE,FALSE,America/New_York
27824,35.55688,-76.02105,Engelhard,NC,North Carolina,TRUE,,1445,3.4,37095,Hyde,"{""37095"": 100}",Hyde,37095,FALSE,FALSE,America/New_York
27825,35.83527,-77.17152,Everetts,NC,North Carolina,TRUE,,85,88.2,37117,Martin,"{""37117"": 100}",Martin,37117,FALSE,FALSE,America/New_York
27826,35.58988,-76.2521,Fairfield,NC,North Carolina,TRUE,,1116,2.7,37095,Hyde,"{""37095"": 73.93, ""37177"": 26.07}",Hyde|Tyrrell,37095|37177,FALSE,FALSE,America/New_York
27827,35.69823,-77.51224,Falkland,NC,North Carolina,TRUE,,122,246.1,37147,Pitt,"{""37147"": 100}",Pitt,37147,FALSE,FALSE,America/New_York
27828,35.58509,-77.58519,Farmville,NC,North Carolina,TRUE,,8978,43.7,37147,Pitt,"{""37147"": 68.58, ""37079"": 31.42}",Pitt|Greene,37147|37079,FALSE,FALSE,America/New_York
27829,35.69272,-77.61215,Fountain,NC,North Carolina,TRUE,,1387,11.6,37147,Pitt,"{""37147"": 63.4, ""37065"": 20.64, ""37195"": 15.96}",Pitt|Edgecombe|Wilson,37147|37065|37195,FALSE,FALSE,America/New_York
27830,35.55557,-77.95224,Fremont,NC,North Carolina,TRUE,,3867,25.6,37191,Wayne,"{""37191"": 89.43, ""37195"": 10.57}",Wayne|Wilson,37191|37195,FALSE,FALSE,America/New_York
27831,36.45614,-77.56574,Garysburg,NC,North Carolina,TRUE,,2522,15.6,37131,Northampton,"{""37131"": 100}",Northampton,37131,FALSE,FALSE,America/New_York
27832,36.51262,-77.72178,Gaston,NC,North Carolina,TRUE,,2505,29,37131,Northampton,"{""37131"": 100}",Northampton,37131,FALSE,FALSE,America/New_York
27834,35.6571,-77.37981,Greenville,NC,North Carolina,TRUE,,54547,120.8,37147,Pitt,"{""37147"": 96.27, ""37013"": 2.67, ""37065"": 1.06}",Pitt|Beaufort|Edgecombe,37147|37013|37065,FALSE,FALSE,America/New_York
27837,35.51606,-77.20892,Grimesland,NC,North Carolina,TRUE,,5931,38.9,37147,Pitt,"{""37147"": 96.92, ""37013"": 3.08}",Pitt|Beaufort,37147|37013,FALSE,FALSE,America/New_York
27839,36.28818,-77.55009,Halifax,NC,North Carolina,TRUE,,3807,10.5,37083,Halifax,"{""37083"": 100}",Halifax,37083,FALSE,FALSE,America/New_York
27840,35.9343,-77.23186,Hamilton,NC,North Carolina,TRUE,,231,16.1,37117,Martin,"{""37117"": 100}",Martin,37117,FALSE,FALSE,America/New_York
27841,35.90859,-77.27632,Hassell,NC,North Carolina,TRUE,,26,37.7,37117,Martin,"{""37117"": 100}",Martin,37117,FALSE,FALSE,America/New_York
27842,36.52458,-77.85593,Henrico,NC,North Carolina,TRUE,,1503,55.1,37131,Northampton,"{""37131"": 92.12, ""37185"": 7.88}",Northampton|Warren,37131|37185,FALSE,FALSE,America/New_York
27843,35.99332,-77.39509,Hobgood,NC,North Carolina,TRUE,,1011,6.4,37065,Edgecombe,"{""37065"": 34.53, ""37117"": 33.07, ""37083"": 32.4}",Edgecombe|Martin|Halifax,37065|37117|37083,FALSE,FALSE,America/New_York
27844,36.24555,-77.94945,Hollister,NC,North Carolina,TRUE,,3156,22.5,37083,Halifax,"{""37083"": 71.12, ""37185"": 20.68, ""37127"": 4.53, ""37069"": 3.67}",Halifax|Warren|Nash|Franklin,37083|37185|37127|37069,FALSE,FALSE,America/New_York
27845,36.37403,-77.43331,Jackson,NC,North Carolina,TRUE,,2477,9.8,37131,Northampton,"{""37131"": 100}",Northampton,37131,FALSE,FALSE,America/New_York
27846,35.76519,-76.89191,Jamesville,NC,North Carolina,TRUE,,2726,11.2,37117,Martin,"{""37117"": 100}",Martin,37117,FALSE,FALSE,America/New_York
27847,36.18597,-77.20738,Kelford,NC,North Carolina,TRUE,,1140,9.7,37015,Bertie,"{""37015"": 100}",Bertie,37015,FALSE,FALSE,America/New_York
27849,36.06796,-77.20675,Lewiston Woodville,NC,North Carolina,TRUE,,1150,6,37015,Bertie,"{""37015"": 100}",Bertie,37015,FALSE,FALSE,America/New_York
27850,36.40202,-77.88141,Littleton,NC,North Carolina,TRUE,,7015,14.2,37083,Halifax,"{""37083"": 61.86, ""37185"": 38.14}",Halifax|Warren,37083|37185,FALSE,FALSE,America/New_York
27851,35.63965,-78.02739,Lucama,NC,North Carolina,TRUE,,5250,45.7,37195,Wilson,"{""37195"": 99.11, ""37191"": 0.89}",Wilson|Wayne,37195|37191,FALSE,FALSE,America/New_York
27852,35.75288,-77.63581,Macclesfield,NC,North Carolina,TRUE,,2443,19.6,37065,Edgecombe,"{""37065"": 81.44, ""37147"": 9.89, ""37195"": 8.67}",Edgecombe|Pitt|Wilson,37065|37147|37195,FALSE,FALSE,America/New_York
27853,36.51716,-77.30488,Margarettsville,NC,North Carolina,TRUE,,659,6.9,37131,Northampton,"{""37131"": 100}",Northampton,37131,FALSE,FALSE,America/New_York
27855,36.42171,-77.08432,Murfreesboro,NC,North Carolina,TRUE,,5608,39.4,37091,Hertford,"{""37091"": 83.52, ""37131"": 16.48}",Hertford|Northampton,37091|37131,FALSE,FALSE,America/New_York
27856,36.00998,-77.98151,Nashville,NC,North Carolina,TRUE,,16826,50.8,37127,Nash,"{""37127"": 100}",Nash,37127,FALSE,FALSE,America/New_York
27857,35.96968,-77.27198,Oak City,NC,North Carolina,TRUE,,1096,5.7,37117,Martin,"{""37117"": 100}",Martin,37117,FALSE,FALSE,America/New_York
27858,35.53229,-77.29709,Greenville,NC,North Carolina,TRUE,,57075,358.9,37147,Pitt,"{""37147"": 100}",Pitt,37147,FALSE,FALSE,America/New_York
27860,35.67693,-76.65001,Pantego,NC,North Carolina,TRUE,,1311,3.4,37013,Beaufort,"{""37013"": 53.75, ""37187"": 31.54, ""37095"": 14.71}",Beaufort|Washington|Hyde,37013|37187|37095,FALSE,FALSE,America/New_York
27861,35.81716,-77.31899,Parmele,NC,North Carolina,TRUE,,101,84.4,37117,Martin,"{""37117"": 100}",Martin,37117,FALSE,FALSE,America/New_York
27862,36.49264,-77.18906,Pendleton,NC,North Carolina,TRUE,,577,4.9,37131,Northampton,"{""37131"": 100}",Northampton,37131,FALSE,FALSE,America/New_York
27863,35.48739,-77.96993,Pikeville,NC,North Carolina,TRUE,,13545,79.1,37191,Wayne,"{""37191"": 96.03, ""37079"": 2.82, ""37101"": 1.15}",Wayne|Greene|Johnston,37191|37079|37101,FALSE,FALSE,America/New_York
27864,35.8075,-77.64789,Pinetops,NC,North Carolina,TRUE,,4524,42.9,37065,Edgecombe,"{""37065"": 100}",Edgecombe,37065,FALSE,FALSE,America/New_York
27865,35.60588,-76.83244,Pinetown,NC,North Carolina,TRUE,,2479,7.6,37013,Beaufort,"{""37013"": 100}",Beaufort,37013,FALSE,FALSE,America/New_York
27866,36.51832,-77.51577,Pleasant Hill,NC,North Carolina,TRUE,,862,12.7,37131,Northampton,"{""37131"": 100}",Northampton,37131,FALSE,FALSE,America/New_York
27869,36.26631,-77.31665,Rich Square,NC,North Carolina,TRUE,,1774,8.3,37131,Northampton,"{""37131"": 99.7, ""37015"": 0.3}",Northampton|Bertie,37131|37015,FALSE,FALSE,America/New_York
27870,36.43053,-77.71828,Roanoke Rapids,NC,North Carolina,TRUE,,25279,149.7,37083,Halifax,"{""37083"": 100}",Halifax,37083,FALSE,FALSE,America/New_York
27871,35.81355,-77.26306,Robersonville,NC,North Carolina,TRUE,,3606,14.5,37117,Martin,"{""37117"": 72.5, ""37147"": 26.86, ""37013"": 0.64}",Martin|Pitt|Beaufort,37117|37147|37013,FALSE,FALSE,America/New_York
27872,36.20096,-77.24601,Roxobel,NC,North Carolina,TRUE,,471,89.6,37015,Bertie,"{""37015"": 100}",Bertie,37015,FALSE,FALSE,America/New_York
27873,35.65331,-77.77606,Saratoga,NC,North Carolina,TRUE,,277,190.6,37195,Wilson,"{""37195"": 100}",Wilson,37195,FALSE,FALSE,America/New_York
27874,36.12874,-77.41037,Scotland Neck,NC,North Carolina,TRUE,,3168,9.1,37083,Halifax,"{""37083"": 100}",Halifax,37083,FALSE,FALSE,America/New_York
27875,35.45623,-76.48532,Scranton,NC,North Carolina,TRUE,,164,1.1,37095,Hyde,"{""37095"": 100}",Hyde,37095,FALSE,FALSE,America/New_York
27876,36.48015,-77.40065,Seaboard,NC,North Carolina,TRUE,,1058,9.8,37131,Northampton,"{""37131"": 100}",Northampton,37131,FALSE,FALSE,America/New_York
27877,36.51883,-77.19219,Severn,NC,North Carolina,TRUE,,12,23.8,37131,Northampton,"{""37131"": 100}",Northampton,37131,FALSE,FALSE,America/New_York
27878,35.86606,-77.83062,Sharpsburg,NC,North Carolina,TRUE,,962,472.1,37127,Nash,"{""37127"": 59.16, ""37195"": 27.87, ""37065"": 12.97}",Nash|Wilson|Edgecombe,37127|37195|37065,FALSE,FALSE,America/New_York
27879,35.57456,-77.27968,Simpson,NC,North Carolina,TRUE,,244,324.3,37147,Pitt,"{""37147"": 100}",Pitt,37147,FALSE,FALSE,America/New_York
27880,35.73656,-78.08912,Sims,NC,North Carolina,TRUE,,3969,60,37195,Wilson,"{""37195"": 96.07, ""37127"": 3.93}",Wilson|Nash,37195|37127,FALSE,FALSE,America/New_York
27881,35.9702,-77.44228,Speed,NC,North Carolina,TRUE,,16,70.4,37065,Edgecombe,"{""37065"": 100}",Edgecombe,37065,FALSE,FALSE,America/New_York
27882,35.94222,-78.11825,Spring Hope,NC,North Carolina,TRUE,,8193,30.5,37127,Nash,"{""37127"": 78.09, ""37069"": 21.91}",Nash|Franklin,37127|37069,FALSE,FALSE,America/New_York
27883,35.59141,-77.80095,Stantonsburg,NC,North Carolina,TRUE,,3751,18.4,37195,Wilson,"{""37195"": 47.81, ""37079"": 36.65, ""37191"": 15.55}",Wilson|Greene|Wayne,37195|37079|37191,FALSE,FALSE,America/New_York
27884,35.70771,-77.27176,Stokes,NC,North Carolina,TRUE,,1541,16.6,37147,Pitt,"{""37147"": 100}",Pitt,37147,FALSE,FALSE,America/New_York
27885,35.44429,-76.23125,Swanquarter,NC,North Carolina,TRUE,,734,2.3,37095,Hyde,"{""37095"": 100}",Hyde,37095,FALSE,FALSE,America/New_York
27886,35.90369,-77.52248,Tarboro,NC,North Carolina,TRUE,,18341,37,37065,Edgecombe,"{""37065"": 96.99, ""37147"": 3.01}",Edgecombe|Pitt,37065|37147,FALSE,FALSE,America/New_York
27888,35.59589,-77.70448,Walstonburg,NC,North Carolina,TRUE,,1814,12.4,37079,Greene,"{""37079"": 72.92, ""37195"": 17.01, ""37147"": 10.07}",Greene|Wilson|Pitt,37079|37195|37147,FALSE,FALSE,America/New_York
27889,35.58909,-77.02386,Washington,NC,North Carolina,TRUE,,24515,53.7,37013,Beaufort,"{""37013"": 90.25, ""37147"": 7.74, ""37117"": 2.01}",Beaufort|Pitt|Martin,37013|37147|37117,FALSE,FALSE,America/New_York
27890,36.41505,-77.59194,Weldon,NC,North Carolina,TRUE,,2341,98.2,37083,Halifax,"{""37083"": 100}",Halifax,37083,FALSE,FALSE,America/New_York
27891,36.09968,-77.74103,Whitakers,NC,North Carolina,TRUE,,4812,13.2,37127,Nash,"{""37127"": 47.81, ""37065"": 45.21, ""37083"": 6.98}",Nash|Edgecombe|Halifax,37127|37065|37083,FALSE,FALSE,America/New_York
27892,35.81844,-77.06434,Williamston,NC,North Carolina,TRUE,,13960,29.1,37117,Martin,"{""37117"": 99.57, ""37013"": 0.43}",Martin|Beaufort,37117|37013,FALSE,FALSE,America/New_York
27893,35.69351,-77.90458,Wilson,NC,North Carolina,TRUE,,38929,137.9,37195,Wilson,"{""37195"": 100}",Wilson,37195,FALSE,FALSE,America/New_York
27896,35.79303,-77.97399,Wilson,NC,North Carolina,TRUE,,19467,213.8,37195,Wilson,"{""37195"": 67.72, ""37127"": 32.28}",Wilson|Nash,37195|37127,FALSE,FALSE,America/New_York
27897,36.3246,-77.20969,Woodland,NC,North Carolina,TRUE,,1303,11.4,37131,Northampton,"{""37131"": 79.63, ""37091"": 20.37}",Northampton|Hertford,37131|37091,FALSE,FALSE,America/New_York
27909,36.29548,-76.28394,Elizabeth City,NC,North Carolina,TRUE,,40490,68.9,37139,Pasquotank,"{""37139"": 100}",Pasquotank,37139,FALSE,FALSE,America/New_York
27910,36.27996,-76.99281,Ahoskie,NC,North Carolina,TRUE,,10971,29,37091,Hertford,"{""37091"": 69.7, ""37015"": 30.3}",Hertford|Bertie,37091|37015,FALSE,FALSE,America/New_York
27915,35.40794,-75.49465,Avon,NC,North Carolina,TRUE,,370,17.5,37055,Dare,"{""37055"": 100}",Dare,37055,FALSE,FALSE,America/New_York
27916,36.32933,-75.91996,Aydlett,NC,North Carolina,TRUE,,884,40.2,37053,Currituck,"{""37053"": 100}",Currituck,37053,FALSE,FALSE,America/New_York
27917,36.36071,-75.99071,Barco,NC,North Carolina,TRUE,,720,14.1,37053,Currituck,"{""37053"": 100}",Currituck,37053,FALSE,FALSE,America/New_York
27919,36.31178,-76.50293,Belvidere,NC,North Carolina,TRUE,,785,5.1,37143,Perquimans,"{""37143"": 90.38, ""37041"": 9.62}",Perquimans|Chowan,37143|37041,FALSE,FALSE,America/New_York
27920,35.25109,-75.54755,Buxton,NC,North Carolina,TRUE,,1477,72.7,37055,Dare,"{""37055"": 100}",Dare,37055,FALSE,FALSE,America/New_York
27921,36.3446,-76.15512,Camden,NC,North Carolina,TRUE,,4696,28.4,37029,Camden,"{""37029"": 100}",Camden,37029,FALSE,FALSE,America/New_York
27922,36.32118,-76.84837,Cofield,NC,North Carolina,TRUE,,838,7.6,37091,Hertford,"{""37091"": 100}",Hertford,37091,FALSE,FALSE,America/New_York
27923,36.38852,-75.93562,Coinjock,NC,North Carolina,TRUE,,572,42.7,37053,Currituck,"{""37053"": 100}",Currituck,37053,FALSE,FALSE,America/New_York
27924,36.17835,-76.83822,Colerain,NC,North Carolina,TRUE,,2401,9.5,37015,Bertie,"{""37015"": 91.63, ""37091"": 8.37}",Bertie|Hertford,37015|37091,FALSE,FALSE,America/New_York
27925,35.84336,-76.18349,Columbia,NC,North Carolina,TRUE,,3117,4,37177,Tyrrell,"{""37177"": 100}",Tyrrell,37177,FALSE,FALSE,America/New_York
27926,36.51687,-76.60288,Corapeake,NC,North Carolina,TRUE,,2027,21.6,37073,Gates,"{""37073"": 100}",Gates,37073,FALSE,FALSE,America/New_York
27927,36.4131,-75.8497,Corolla,NC,North Carolina,TRUE,,1279,18.6,37053,Currituck,"{""37053"": 100}",Currituck,37053,FALSE,FALSE,America/New_York
27928,35.80857,-76.43579,Creswell,NC,North Carolina,TRUE,,1865,4.8,37187,Washington,"{""37187"": 72.98, ""37177"": 27.02}",Washington|Tyrrell,37187|37177,FALSE,FALSE,America/New_York
27929,36.42407,-76.02534,Currituck,NC,North Carolina,TRUE,,3403,84.8,37053,Currituck,"{""37053"": 100}",Currituck,37053,FALSE,FALSE,America/New_York
27932,36.10223,-76.59414,Edenton,NC,North Carolina,TRUE,,12881,38.1,37041,Chowan,"{""37041"": 90.92, ""37143"": 9.08}",Chowan|Perquimans,37041|37143,FALSE,FALSE,America/New_York
27935,36.43026,-76.85962,Eure,NC,North Carolina,TRUE,,1667,10.6,37073,Gates,"{""37073"": 100}",Gates,37073,FALSE,FALSE,America/New_York
27936,35.24224,-75.60547,Frisco,NC,North Carolina,TRUE,,659,48.8,37055,Dare,"{""37055"": 100}",Dare,37055,FALSE,FALSE,America/New_York
27937,36.50453,-76.77726,Gates,NC,North Carolina,TRUE,,3050,14.6,37073,Gates,"{""37073"": 100}",Gates,37073,FALSE,FALSE,America/New_York
27938,36.38422,-76.71628,Gatesville,NC,North Carolina,TRUE,,1764,13.3,37073,Gates,"{""37073"": 100}",Gates,37073,FALSE,FALSE,America/New_York
27939,36.23528,-75.87689,Grandy,NC,North Carolina,TRUE,,2407,121.7,37053,Currituck,"{""37053"": 100}",Currituck,37053,FALSE,FALSE,America/New_York
27941,36.09147,-75.81678,Harbinger,NC,North Carolina,TRUE,,493,74.9,37053,Currituck,"{""37053"": 100}",Currituck,37053,FALSE,FALSE,America/New_York
27942,36.28785,-76.7597,Harrellsville,NC,North Carolina,TRUE,,684,9.5,37091,Hertford,"{""37091"": 100}",Hertford,37091,FALSE,FALSE,America/New_York
27943,35.21432,-75.69363,Hatteras,NC,North Carolina,TRUE,,458,66,37055,Dare,"{""37055"": 100}",Dare,37055,FALSE,FALSE,America/New_York
27944,36.17908,-76.41446,Hertford,NC,North Carolina,TRUE,,11204,24.7,37143,Perquimans,"{""37143"": 100}",Perquimans,37143,FALSE,FALSE,America/New_York
27946,36.35901,-76.59648,Hobbsville,NC,North Carolina,TRUE,,1155,10.2,37073,Gates,"{""37073"": 87.19, ""37041"": 12.81}",Gates|Chowan,37073|37041,FALSE,FALSE,America/New_York
27947,36.20278,-75.86922,Jarvisburg,NC,North Carolina,TRUE,,1183,44.2,37053,Currituck,"{""37053"": 100}",Currituck,37053,FALSE,FALSE,America/New_York
27948,36.01761,-75.68663,Kill Devil Hills,NC,North Carolina,TRUE,,12579,524.7,37055,Dare,"{""37055"": 100}",Dare,37055,FALSE,FALSE,America/New_York
27949,36.10814,-75.73112,Kitty Hawk,NC,North Carolina,TRUE,,7874,200.4,37055,Dare,"{""37055"": 100}",Dare,37055,FALSE,FALSE,America/New_York
27950,36.52599,-76.00081,Knotts Island,NC,North Carolina,TRUE,,1819,23.6,37053,Currituck,"{""37053"": 99.83, ""51810"": 0.17}",Currituck|Virginia Beach,37053|51810,FALSE,FALSE,America/New_York
27953,35.79298,-75.8685,Manns Harbor,NC,North Carolina,TRUE,,774,1.1,37055,Dare,"{""37055"": 100}",Dare,37055,FALSE,FALSE,America/New_York
27954,35.91056,-75.68202,Manteo,NC,North Carolina,TRUE,,6937,302.5,37055,Dare,"{""37055"": 100}",Dare,37055,FALSE,FALSE,America/New_York
27956,36.39999,-76.00115,Maple,NC,North Carolina,TRUE,,174,24.4,37053,Currituck,"{""37053"": 100}",Currituck,37053,FALSE,FALSE,America/New_York
27957,36.05577,-76.76293,Merry Hill,NC,North Carolina,TRUE,,1342,9.6,37015,Bertie,"{""37015"": 100}",Bertie,37015,FALSE,FALSE,America/New_York
27958,36.48971,-76.15378,Moyock,NC,North Carolina,TRUE,,12612,61,37053,Currituck,"{""37053"": 100}",Currituck,37053,FALSE,FALSE,America/New_York
27959,35.88566,-75.59641,Nags Head,NC,North Carolina,TRUE,,3158,83,37055,Dare,"{""37055"": 100}",Dare,37055,FALSE,FALSE,America/New_York
27960,35.12593,-75.92165,Ocracoke,NC,North Carolina,TRUE,,715,31.7,37095,Hyde,"{""37095"": 100}",Hyde,37095,FALSE,FALSE,America/New_York
27962,35.78437,-76.75026,Plymouth,NC,North Carolina,TRUE,,6959,31.6,37187,Washington,"{""37187"": 93.12, ""37013"": 6.88}",Washington|Beaufort,37187|37013,FALSE,FALSE,America/New_York
27964,36.10074,-75.80438,Point Harbor,NC,North Carolina,TRUE,,673,158.9,37053,Currituck,"{""37053"": 100}",Currituck,37053,FALSE,FALSE,America/New_York
27965,36.28404,-75.92681,Poplar Branch,NC,North Carolina,TRUE,,354,7.6,37053,Currituck,"{""37053"": 100}",Currituck,37053,FALSE,FALSE,America/New_York
27966,36.13325,-75.83833,Powells Point,NC,North Carolina,TRUE,,1165,42.1,37053,Currituck,"{""37053"": 100}",Currituck,37053,FALSE,FALSE,America/New_York
27967,36.22232,-76.90838,Powellsville,NC,North Carolina,TRUE,,404,27.2,37015,Bertie,"{""37015"": 100}",Bertie,37015,FALSE,FALSE,America/New_York
27968,35.68549,-75.49195,Rodanthe,NC,North Carolina,TRUE,,184,9.4,37055,Dare,"{""37055"": 100}",Dare,37055,FALSE,FALSE,America/New_York
27969,36.4633,-76.80259,Roduco,NC,North Carolina,TRUE,,286,42.6,37073,Gates,"{""37073"": 100}",Gates,37073,FALSE,FALSE,America/New_York
27970,35.87596,-76.57945,Roper,NC,North Carolina,TRUE,,2799,9.1,37187,Washington,"{""37187"": 100}",Washington,37187,FALSE,FALSE,America/New_York
27972,35.55427,-75.46986,Salvo,NC,North Carolina,TRUE,,210,82.5,37055,Dare,"{""37055"": 100}",Dare,37055,FALSE,FALSE,America/New_York
27973,36.36448,-76.07058,Shawboro,NC,North Carolina,TRUE,,1266,13.2,37053,Currituck,"{""37053"": 62.53, ""37029"": 37.47}",Currituck|Camden,37053|37029,FALSE,FALSE,America/New_York
27974,36.23941,-76.00264,Shiloh,NC,North Carolina,TRUE,,1097,9.3,37029,Camden,"{""37029"": 100}",Camden,37029,FALSE,FALSE,America/New_York
27976,36.48185,-76.34005,South Mills,NC,North Carolina,TRUE,,4330,14.3,37029,Camden,"{""37029"": 100}",Camden,37029,FALSE,FALSE,America/New_York
27978,35.66438,-75.76959,Stumpy Point,NC,North Carolina,TRUE,,341,4.5,37055,Dare,"{""37055"": 100}",Dare,37055,FALSE,FALSE,America/New_York
27979,36.44072,-76.56243,Sunbury,NC,North Carolina,TRUE,,681,3.7,37073,Gates,"{""37073"": 100}",Gates,37073,FALSE,FALSE,America/New_York
27980,36.24292,-76.62161,Tyner,NC,North Carolina,TRUE,,1572,12.5,37041,Chowan,"{""37041"": 87.6, ""37143"": 12.4}",Chowan|Perquimans,37041|37143,FALSE,FALSE,America/New_York
27981,35.85602,-75.64041,Wanchese,NC,North Carolina,TRUE,,2009,85.1,37055,Dare,"{""37055"": 100}",Dare,37055,FALSE,FALSE,America/New_York
27982,35.5635,-75.46466,Waves,NC,North Carolina,TRUE,,130,75.9,37055,Dare,"{""37055"": 100}",Dare,37055,FALSE,FALSE,America/New_York
27983,35.98198,-76.94704,Windsor,NC,North Carolina,TRUE,,8227,10,37015,Bertie,"{""37015"": 100}",Bertie,37015,FALSE,FALSE,America/New_York
27985,36.22085,-76.46928,Winfall,NC,North Carolina,TRUE,,325,477.7,37143,Perquimans,"{""37143"": 100}",Perquimans,37143,FALSE,FALSE,America/New_York
27986,36.3891,-76.92816,Winton,NC,North Carolina,TRUE,,1875,50.6,37091,Hertford,"{""37091"": 100}",Hertford,37091,FALSE,FALSE,America/New_York
28001,35.33594,-80.20419,Albemarle,NC,North Carolina,TRUE,,25949,76.3,37167,Stanly,"{""37167"": 100}",Stanly,37167,FALSE,FALSE,America/New_York
28006,35.40664,-81.0926,Alexis,NC,North Carolina,TRUE,,1206,101.1,37071,Gaston,"{""37071"": 51.42, ""37109"": 48.58}",Gaston|Lincoln,37071|37109,FALSE,FALSE,America/New_York
28007,35.12169,-80.13052,Ansonville,NC,North Carolina,TRUE,,913,38.6,37007,Anson,"{""37007"": 100}",Anson,37007,FALSE,FALSE,America/New_York
28009,35.40826,-80.10743,Badin,NC,North Carolina,TRUE,,1216,165.5,37167,Stanly,"{""37167"": 100}",Stanly,37167,FALSE,FALSE,America/New_York
28012,35.21054,-81.04077,Belmont,NC,North Carolina,TRUE,,26027,368.7,37071,Gaston,"{""37071"": 100}",Gaston,37071,FALSE,FALSE,America/New_York
28016,35.31729,-81.28737,Bessemer City,NC,North Carolina,TRUE,,13234,118.9,37071,Gaston,"{""37071"": 100}",Gaston,37071,FALSE,FALSE,America/New_York
28017,35.24708,-81.67059,Boiling Springs,NC,North Carolina,TRUE,,483,1085.8,37045,Cleveland,"{""37045"": 100}",Cleveland,37045,FALSE,FALSE,America/New_York
28018,35.48458,-81.79393,Bostic,NC,North Carolina,TRUE,,4516,17.5,37161,Rutherford,"{""37161"": 100}",Rutherford,37161,FALSE,FALSE,America/New_York
28019,35.28395,-81.79396,Caroleen,NC,North Carolina,TRUE,,0,0,37161,Rutherford,"{""37161"": 100}",Rutherford,37161,FALSE,FALSE,America/New_York
28020,35.52408,-81.64328,Casar,NC,North Carolina,TRUE,,2450,20.4,37045,Cleveland,"{""37045"": 87.31, ""37161"": 12.69}",Cleveland|Rutherford,37045|37161,FALSE,FALSE,America/New_York
28021,35.39952,-81.41035,Cherryville,NC,North Carolina,TRUE,,13702,89.9,37071,Gaston,"{""37071"": 43.01, ""37109"": 32.25, ""37045"": 24.74}",Gaston|Lincoln|Cleveland,37071|37109|37045,FALSE,FALSE,America/New_York
28023,35.56922,-80.60321,China Grove,NC,North Carolina,TRUE,,15703,130.3,37159,Rowan,"{""37159"": 100}",Rowan,37159,FALSE,FALSE,America/New_York
28024,35.24347,-81.77066,Cliffside,NC,North Carolina,TRUE,,24,32.7,37161,Rutherford,"{""37161"": 100}",Rutherford,37161,FALSE,FALSE,America/New_York
28025,35.38095,-80.52719,Concord,NC,North Carolina,TRUE,,57384,204.4,37025,Cabarrus,"{""37025"": 100}",Cabarrus,37025,FALSE,FALSE,America/New_York
28027,35.40879,-80.67524,Concord,NC,North Carolina,TRUE,,79079,442.5,37025,Cabarrus,"{""37025"": 100}",Cabarrus,37025,FALSE,FALSE,America/New_York
28031,35.47539,-80.89344,Cornelius,NC,North Carolina,TRUE,,30324,837.5,37119,Mecklenburg,"{""37119"": 100}",Mecklenburg,37119,FALSE,FALSE,America/New_York
28032,35.23354,-81.07925,Cramerton,NC,North Carolina,TRUE,,2925,544.4,37071,Gaston,"{""37071"": 100}",Gaston,37071,FALSE,FALSE,America/New_York
28033,35.42005,-81.3239,Crouse,NC,North Carolina,TRUE,,2738,65.5,37109,Lincoln,"{""37109"": 63.4, ""37071"": 36.6}",Lincoln|Gaston,37109|37071,FALSE,FALSE,America/New_York
28034,35.35323,-81.18016,Dallas,NC,North Carolina,TRUE,,19063,161.2,37071,Gaston,"{""37071"": 100}",Gaston,37071,FALSE,FALSE,America/New_York
28036,35.48586,-80.79375,Davidson,NC,North Carolina,TRUE,,21492,354.2,37119,Mecklenburg,"{""37119"": 59.06, ""37025"": 32.73, ""37097"": 7.89, ""37159"": 0.32}",Mecklenburg|Cabarrus|Iredell|Rowan,37119|37025|37097|37159,FALSE,FALSE,America/New_York
28037,35.5064,-81.01712,Denver,NC,North Carolina,TRUE,,24834,214.4,37109,Lincoln,"{""37109"": 89.75, ""37035"": 10.25}",Lincoln|Catawba,37109|37035,FALSE,FALSE,America/New_York
28039,35.6803,-80.43626,East Spencer,NC,North Carolina,TRUE,,21,137.9,37159,Rowan,"{""37159"": 100}",Rowan,37159,FALSE,FALSE,America/New_York
28040,35.38738,-81.74762,Ellenboro,NC,North Carolina,TRUE,,7061,40.2,37161,Rutherford,"{""37161"": 96.15, ""37045"": 3.85}",Rutherford|Cleveland,37161|37045,FALSE,FALSE,America/New_York
28041,35.58747,-80.46249,Faith,NC,North Carolina,TRUE,,2,16.3,37159,Rowan,"{""37159"": 100}",Rowan,37159,FALSE,FALSE,America/New_York
28042,35.42334,-81.50747,Fallston,NC,North Carolina,TRUE,,337,258.2,37045,Cleveland,"{""37045"": 100}",Cleveland,37045,FALSE,FALSE,America/New_York
28043,35.31301,-81.86971,Forest City,NC,North Carolina,TRUE,,21264,123.9,37161,Rutherford,"{""37161"": 100}",Rutherford,37161,FALSE,FALSE,America/New_York
28052,35.22492,-81.23266,Gastonia,NC,North Carolina,TRUE,,35894,334.7,37071,Gaston,"{""37071"": 100}",Gaston,37071,FALSE,FALSE,America/New_York
28054,35.26128,-81.15072,Gastonia,NC,North Carolina,TRUE,,40345,805.7,37071,Gaston,"{""37071"": 100}",Gaston,37071,FALSE,FALSE,America/New_York
28056,35.21768,-81.12503,Gastonia,NC,North Carolina,TRUE,,35493,283.9,37071,Gaston,"{""37071"": 100}",Gaston,37071,FALSE,FALSE,America/New_York
28071,35.51859,-80.32175,Gold Hill,NC,North Carolina,TRUE,,2996,23.7,37159,Rowan,"{""37159"": 66.85, ""37025"": 26.62, ""37167"": 6.53}",Rowan|Cabarrus|Stanly,37159|37025|37167,FALSE,FALSE,America/New_York
28072,35.61326,-80.44241,Granite Quarry,NC,North Carolina,TRUE,,662,320.4,37159,Rowan,"{""37159"": 100}",Rowan,37159,FALSE,FALSE,America/New_York
28073,35.19776,-81.48126,Grover,NC,North Carolina,TRUE,,6588,98.9,37045,Cleveland,"{""37045"": 100}",Cleveland,37045,FALSE,FALSE,America/New_York
28074,35.23933,-81.8783,Harris,NC,North Carolina,TRUE,,0,0,37161,Rutherford,"{""37161"": 100}",Rutherford,37161,FALSE,FALSE,America/New_York
28075,35.30192,-80.63929,Harrisburg,NC,North Carolina,TRUE,,21914,401,37025,Cabarrus,"{""37025"": 100}",Cabarrus,37025,FALSE,FALSE,America/New_York
28076,35.25904,-81.79074,Henrietta,NC,North Carolina,TRUE,,152,56.1,37161,Rutherford,"{""37161"": 100}",Rutherford,37161,FALSE,FALSE,America/New_York
28077,35.40413,-81.20284,High Shoals,NC,North Carolina,TRUE,,389,257,37071,Gaston,"{""37071"": 100}",Gaston,37071,FALSE,FALSE,America/New_York
28078,35.40545,-80.86633,Huntersville,NC,North Carolina,TRUE,,68639,415.9,37119,Mecklenburg,"{""37119"": 98.19, ""37025"": 1.81}",Mecklenburg|Cabarrus,37119|37025,FALSE,FALSE,America/New_York
28079,35.1132,-80.60183,Indian Trail,NC,North Carolina,TRUE,,40539,335.8,37179,Union,"{""37179"": 100}",Union,37179,FALSE,FALSE,America/New_York
28080,35.45269,-81.10995,Iron Station,NC,North Carolina,TRUE,,7830,75.1,37109,Lincoln,"{""37109"": 99.56, ""37071"": 0.44}",Lincoln|Gaston,37109|37071,FALSE,FALSE,America/New_York
28081,35.50199,-80.67024,Kannapolis,NC,North Carolina,TRUE,,27527,351.1,37025,Cabarrus,"{""37025"": 50.62, ""37159"": 49.38}",Cabarrus|Rowan,37025|37159,FALSE,FALSE,America/New_York
28083,35.49108,-80.58092,Kannapolis,NC,North Carolina,TRUE,,25746,497.1,37025,Cabarrus,"{""37025"": 75.27, ""37159"": 24.73}",Cabarrus|Rowan,37025|37159,FALSE,FALSE,America/New_York
28086,35.24381,-81.37028,Kings Mountain,NC,North Carolina,TRUE,,28652,122.2,37045,Cleveland,"{""37045"": 74.2, ""37071"": 25.8}",Cleveland|Gaston,37045|37071,FALSE,FALSE,America/New_York
28088,35.54437,-80.61463,Landis,NC,North Carolina,TRUE,,3094,421,37159,Rowan,"{""37159"": 100}",Rowan,37159,FALSE,FALSE,America/New_York
28089,35.3202,-81.66067,Lattimore,NC,North Carolina,TRUE,,142,131.4,37045,Cleveland,"{""37045"": 100}",Cleveland,37045,FALSE,FALSE,America/New_York
28090,35.45987,-81.55957,Lawndale,NC,North Carolina,TRUE,,7998,32.9,37045,Cleveland,"{""37045"": 94.26, ""37109"": 3.46, ""37023"": 1.22, ""37035"": 1.06}",Cleveland|Lincoln|Burke|Catawba,37045|37109|37023|37035,FALSE,FALSE,America/New_York
28091,34.98628,-79.93171,Lilesville,NC,North Carolina,TRUE,,1887,7.8,37007,Anson,"{""37007"": 100}",Anson,37007,FALSE,FALSE,America/New_York
28092,35.48404,-81.25391,Lincolnton,NC,North Carolina,TRUE,,41002,132,37109,Lincoln,"{""37109"": 87.49, ""37071"": 7.89, ""37035"": 4.62}",Lincoln|Gaston|Catawba,37109|37071|37035,FALSE,FALSE,America/New_York
28097,35.29675,-80.39327,Locust,NC,North Carolina,TRUE,,7162,91.9,37167,Stanly,"{""37167"": 98.05, ""37025"": 1.95}",Stanly|Cabarrus,37167|37025,FALSE,FALSE,America/New_York
28098,35.27057,-81.09749,Lowell,NC,North Carolina,TRUE,,3573,378.8,37071,Gaston,"{""37071"": 100}",Gaston,37071,FALSE,FALSE,America/New_York
28101,35.25703,-81.07572,McAdenville,NC,North Carolina,TRUE,,1048,793,37071,Gaston,"{""37071"": 100}",Gaston,37071,FALSE,FALSE,America/New_York
28102,34.81482,-79.97663,McFarlan,NC,North Carolina,TRUE,,111,46.6,37007,Anson,"{""37007"": 100}",Anson,37007,FALSE,FALSE,America/New_York
28103,35.0037,-80.35316,Marshville,NC,North Carolina,TRUE,,10499,26.5,37179,Union,"{""37179"": 97.52, ""37007"": 2.48}",Union|Anson,37179|37007,FALSE,FALSE,America/New_York
28104,35.06017,-80.69666,Matthews,NC,North Carolina,TRUE,,35285,460.2,37179,Union,"{""37179"": 96.91, ""37119"": 3.09}",Union|Mecklenburg,37179|37119,FALSE,FALSE,America/New_York
28105,35.11914,-80.71116,Matthews,NC,North Carolina,TRUE,,44899,746.2,37119,Mecklenburg,"{""37119"": 98.57, ""37179"": 1.43}",Mecklenburg|Union,37119|37179,FALSE,FALSE,America/New_York
28107,35.24992,-80.52115,Midland,NC,North Carolina,TRUE,,9353,73.9,37025,Cabarrus,"{""37025"": 91.45, ""37119"": 3.87, ""37179"": 3.08, ""37167"": 1.6}",Cabarrus|Mecklenburg|Union|Stanly,37025|37119|37179|37167,FALSE,FALSE,America/New_York
28108,34.93411,-80.67975,Mineral Springs,NC,North Carolina,TRUE,,27,50.8,37179,Union,"{""37179"": 100}",Union,37179,FALSE,FALSE,America/New_York
28109,35.48609,-80.28628,Misenheimer,NC,North Carolina,TRUE,,641,429.6,37167,Stanly,"{""37167"": 100}",Stanly,37167,FALSE,FALSE,America/New_York
28110,35.06552,-80.52781,Monroe,NC,North Carolina,TRUE,,54577,165.4,37179,Union,"{""37179"": 100}",Union,37179,FALSE,FALSE,America/New_York
28112,34.89355,-80.54113,Monroe,NC,North Carolina,TRUE,,27845,81.4,37179,Union,"{""37179"": 100}",Union,37179,FALSE,FALSE,America/New_York
28114,35.23,-81.74814,Mooresboro,NC,North Carolina,TRUE,,7796,45.9,37045,Cleveland,"{""37045"": 54.43, ""37161"": 45.57}",Cleveland|Rutherford,37045|37161,FALSE,FALSE,America/New_York
28115,35.58001,-80.77477,Mooresville,NC,North Carolina,TRUE,,41386,214.1,37097,Iredell,"{""37097"": 70.68, ""37159"": 29.32}",Iredell|Rowan,37097|37159,FALSE,FALSE,America/New_York
28117,35.57405,-80.89658,Mooresville,NC,North Carolina,TRUE,,47574,469.8,37097,Iredell,"{""37097"": 100}",Iredell,37097,FALSE,FALSE,America/New_York
28119,34.85112,-80.01492,Morven,NC,North Carolina,TRUE,,2253,13,37007,Anson,"{""37007"": 100}",Anson,37007,FALSE,FALSE,America/New_York
28120,35.33305,-81.02692,Mount Holly,NC,North Carolina,TRUE,,23418,288.2,37071,Gaston,"{""37071"": 100}",Gaston,37071,FALSE,FALSE,America/New_York
28124,35.40136,-80.40406,Mount Pleasant,NC,North Carolina,TRUE,,6362,42.3,37025,Cabarrus,"{""37025"": 86.24, ""37167"": 13.76}",Cabarrus|Stanly,37025|37167,FALSE,FALSE,America/New_York
28125,35.66061,-80.69949,Mount Ulla,NC,North Carolina,TRUE,,2643,26.6,37159,Rowan,"{""37159"": 95.11, ""37097"": 4.89}",Rowan|Iredell,37159|37097,FALSE,FALSE,America/New_York
28127,35.44978,-80.16552,New London,NC,North Carolina,TRUE,,7257,37.6,37167,Stanly,"{""37167"": 60.29, ""37123"": 33.76, ""37057"": 4.99, ""37159"": 0.95}",Stanly|Montgomery|Davidson|Rowan,37167|37123|37057|37159,FALSE,FALSE,America/New_York
28128,35.21476,-80.15862,Norwood,NC,North Carolina,TRUE,,7602,42.9,37167,Stanly,"{""37167"": 100}",Stanly,37167,FALSE,FALSE,America/New_York
28129,35.23224,-80.32737,Oakboro,NC,North Carolina,TRUE,,5690,50.6,37167,Stanly,"{""37167"": 100}",Stanly,37167,FALSE,FALSE,America/New_York
28133,34.93468,-80.26239,Peachland,NC,North Carolina,TRUE,,2125,10,37007,Anson,"{""37007"": 95.64, ""37179"": 4.36}",Anson|Union,37007|37179,FALSE,FALSE,America/New_York
28134,35.08364,-80.89125,Pineville,NC,North Carolina,TRUE,,12746,590.1,37119,Mecklenburg,"{""37119"": 100}",Mecklenburg,37119,FALSE,FALSE,America/New_York
28135,35.03547,-80.21412,Polkton,NC,North Carolina,TRUE,,5417,20.7,37007,Anson,"{""37007"": 100}",Anson,37007,FALSE,FALSE,America/New_York
28136,35.4206,-81.64241,Polkville,NC,North Carolina,TRUE,,83,410,37045,Cleveland,"{""37045"": 100}",Cleveland,37045,FALSE,FALSE,America/New_York
28137,35.50009,-80.25783,Richfield,NC,North Carolina,TRUE,,2837,24.7,37167,Stanly,"{""37167"": 54.26, ""37159"": 45.74}",Stanly|Rowan,37167|37159,FALSE,FALSE,America/New_York
28138,35.52121,-80.44193,Rockwell,NC,North Carolina,TRUE,,10013,86,37159,Rowan,"{""37159"": 74.97, ""37025"": 25.03}",Rowan|Cabarrus,37159|37025,FALSE,FALSE,America/New_York
28139,35.34736,-81.99702,Rutherfordton,NC,North Carolina,TRUE,,18624,39.5,37161,Rutherford,"{""37161"": 86.68, ""37149"": 13.32}",Rutherford|Polk,37161|37149,FALSE,FALSE,America/New_York
28144,35.70645,-80.46341,Salisbury,NC,North Carolina,TRUE,,27049,347.3,37159,Rowan,"{""37159"": 100}",Rowan,37159,FALSE,FALSE,America/New_York
28146,35.62194,-80.39563,Salisbury,NC,North Carolina,TRUE,,32181,127.9,37159,Rowan,"{""37159"": 100}",Rowan,37159,FALSE,FALSE,America/New_York
28147,35.67997,-80.56275,Salisbury,NC,North Carolina,TRUE,,24529,122,37159,Rowan,"{""37159"": 100}",Rowan,37159,FALSE,FALSE,America/New_York
28150,35.34712,-81.57502,Shelby,NC,North Carolina,TRUE,,26040,91.8,37045,Cleveland,"{""37045"": 99.76, ""37161"": 0.24}",Cleveland|Rutherford,37045|37161,FALSE,FALSE,America/New_York
28152,35.24188,-81.59289,Shelby,NC,North Carolina,TRUE,,25873,125.7,37045,Cleveland,"{""37045"": 100}",Cleveland,37045,FALSE,FALSE,America/New_York
28159,35.69411,-80.43528,Spencer,NC,North Carolina,TRUE,,2954,510.4,37159,Rowan,"{""37159"": 100}",Rowan,37159,FALSE,FALSE,America/New_York
28160,35.36064,-81.92234,Spindale,NC,North Carolina,TRUE,,3957,277.4,37161,Rutherford,"{""37161"": 100}",Rutherford,37161,FALSE,FALSE,America/New_York
28163,35.20702,-80.4285,Stanfield,NC,North Carolina,TRUE,,6123,67.9,37167,Stanly,"{""37167"": 100}",Stanly,37167,FALSE,FALSE,America/New_York
28164,35.39091,-81.03846,Stanley,NC,North Carolina,TRUE,,15678,147.6,37071,Gaston,"{""37071"": 62.79, ""37109"": 37.21}",Gaston|Lincoln,37071|37109,FALSE,FALSE,America/New_York
28166,35.68025,-80.87528,Troutman,NC,North Carolina,TRUE,,10470,139.4,37097,Iredell,"{""37097"": 100}",Iredell,37097,FALSE,FALSE,America/New_York
28167,35.5062,-81.95986,Union Mills,NC,North Carolina,TRUE,,2142,11.2,37161,Rutherford,"{""37161"": 93.31, ""37111"": 6.69}",Rutherford|McDowell,37161|37111,FALSE,FALSE,America/New_York
28168,35.55452,-81.42228,Vale,NC,North Carolina,TRUE,,10632,47.2,37109,Lincoln,"{""37109"": 59.21, ""37035"": 40.47, ""37023"": 0.22, ""37045"": 0.1}",Lincoln|Catawba|Burke|Cleveland,37109|37035|37023|37045,FALSE,FALSE,America/New_York
28169,35.36036,-81.42935,Waco,NC,North Carolina,TRUE,,170,112,37045,Cleveland,"{""37045"": 100}",Cleveland,37045,FALSE,FALSE,America/New_York
28170,34.99263,-80.09259,Wadesboro,NC,North Carolina,TRUE,,9707,21.1,37007,Anson,"{""37007"": 100}",Anson,37007,FALSE,FALSE,America/New_York
28173,34.91532,-80.73021,Waxhaw,NC,North Carolina,TRUE,,62501,227,37179,Union,"{""37179"": 100}",Union,37179,FALSE,FALSE,America/New_York
28174,34.96959,-80.4382,Wingate,NC,North Carolina,TRUE,,8547,90.7,37179,Union,"{""37179"": 100}",Union,37179,FALSE,FALSE,America/New_York
28202,35.22773,-80.8447,Charlotte,NC,North Carolina,TRUE,,16150,3455.9,37119,Mecklenburg,"{""37119"": 100}",Mecklenburg,37119,FALSE,FALSE,America/New_York
28203,35.20832,-80.8577,Charlotte,NC,North Carolina,TRUE,,17989,2217.4,37119,Mecklenburg,"{""37119"": 100}",Mecklenburg,37119,FALSE,FALSE,America/New_York
28204,35.21469,-80.82677,Charlotte,NC,North Carolina,TRUE,,9525,2085.5,37119,Mecklenburg,"{""37119"": 100}",Mecklenburg,37119,FALSE,FALSE,America/New_York
28205,35.22019,-80.78737,Charlotte,NC,North Carolina,TRUE,,51160,1670.1,37119,Mecklenburg,"{""37119"": 100}",Mecklenburg,37119,FALSE,FALSE,America/New_York
28206,35.25631,-80.82144,Charlotte,NC,North Carolina,TRUE,,14000,774.6,37119,Mecklenburg,"{""37119"": 100}",Mecklenburg,37119,FALSE,FALSE,America/New_York
28207,35.19512,-80.82606,Charlotte,NC,North Carolina,TRUE,,9461,1503.5,37119,Mecklenburg,"{""37119"": 100}",Mecklenburg,37119,FALSE,FALSE,America/New_York
28208,35.23153,-80.90611,Charlotte,NC,North Carolina,TRUE,,40502,772.8,37119,Mecklenburg,"{""37119"": 100}",Mecklenburg,37119,FALSE,FALSE,America/New_York
28209,35.17878,-80.85418,Charlotte,NC,North Carolina,TRUE,,23719,1667.9,37119,Mecklenburg,"{""37119"": 100}",Mecklenburg,37119,FALSE,FALSE,America/New_York
28210,35.12969,-80.8548,Charlotte,NC,North Carolina,TRUE,,46811,1457.2,37119,Mecklenburg,"{""37119"": 100}",Mecklenburg,37119,FALSE,FALSE,America/New_York
28211,35.16816,-80.79604,Charlotte,NC,North Carolina,TRUE,,32050,1129.9,37119,Mecklenburg,"{""37119"": 100}",Mecklenburg,37119,FALSE,FALSE,America/New_York
28212,35.1896,-80.74519,Charlotte,NC,North Carolina,TRUE,,43301,1820.2,37119,Mecklenburg,"{""37119"": 100}",Mecklenburg,37119,FALSE,FALSE,America/New_York
28213,35.28459,-80.73339,Charlotte,NC,North Carolina,TRUE,,44515,1208.4,37119,Mecklenburg,"{""37119"": 98.16, ""37025"": 1.84}",Mecklenburg|Cabarrus,37119|37025,FALSE,FALSE,America/New_York
28214,35.27177,-80.96847,Charlotte,NC,North Carolina,TRUE,,41117,468.2,37119,Mecklenburg,"{""37119"": 100}",Mecklenburg,37119,FALSE,FALSE,America/New_York
28215,35.24854,-80.69571,Charlotte,NC,North Carolina,TRUE,,64713,866.1,37119,Mecklenburg,"{""37119"": 93.02, ""37025"": 6.98}",Mecklenburg|Cabarrus,37119|37025,FALSE,FALSE,America/New_York
28216,35.31039,-80.8883,Charlotte,NC,North Carolina,TRUE,,53422,687.1,37119,Mecklenburg,"{""37119"": 100}",Mecklenburg,37119,FALSE,FALSE,America/New_York
28217,35.17146,-80.9077,Charlotte,NC,North Carolina,TRUE,,31756,821.1,37119,Mecklenburg,"{""37119"": 100}",Mecklenburg,37119,FALSE,FALSE,America/New_York
28223,35.30824,-80.73282,Charlotte,NC,North Carolina,TRUE,,3801,2156.6,37119,Mecklenburg,"{""37119"": 100}",Mecklenburg,37119,FALSE,FALSE,America/New_York
28226,35.10767,-80.81837,Charlotte,NC,North Carolina,TRUE,,38475,1008.7,37119,Mecklenburg,"{""37119"": 100}",Mecklenburg,37119,FALSE,FALSE,America/New_York
28227,35.18851,-80.6507,Charlotte,NC,North Carolina,TRUE,,59904,576,37119,Mecklenburg,"{""37119"": 99.21, ""37179"": 0.79}",Mecklenburg|Union,37119|37179,FALSE,FALSE,America/New_York
28244,35.2246,-80.8431,Charlotte,NC,North Carolina,TRUE,,0,0,37119,Mecklenburg,"{""37119"": 100}",Mecklenburg,37119,FALSE,FALSE,America/New_York
28262,35.32609,-80.74234,Charlotte,NC,North Carolina,TRUE,,45186,830.4,37119,Mecklenburg,"{""37119"": 99.07, ""37025"": 0.93}",Mecklenburg|Cabarrus,37119|37025,FALSE,FALSE,America/New_York
28269,35.33747,-80.8026,Charlotte,NC,North Carolina,TRUE,,78540,991.9,37119,Mecklenburg,"{""37119"": 96.93, ""37025"": 3.07}",Mecklenburg|Cabarrus,37119|37025,FALSE,FALSE,America/New_York
28270,35.10963,-80.76005,Charlotte,NC,North Carolina,TRUE,,34169,1061.8,37119,Mecklenburg,"{""37119"": 100}",Mecklenburg,37119,FALSE,FALSE,America/New_York
28273,35.12624,-80.94469,Charlotte,NC,North Carolina,TRUE,,46663,800.1,37119,Mecklenburg,"{""37119"": 100}",Mecklenburg,37119,FALSE,FALSE,America/New_York
28274,35.18909,-80.83384,Charlotte,NC,North Carolina,TRUE,,657,4274.4,37119,Mecklenburg,"{""37119"": 100}",Mecklenburg,37119,FALSE,FALSE,America/New_York
28277,35.05212,-80.81622,Charlotte,NC,North Carolina,TRUE,,71047,1135.9,37119,Mecklenburg,"{""37119"": 100}",Mecklenburg,37119,FALSE,FALSE,America/New_York
28278,35.13063,-81.00753,Charlotte,NC,North Carolina,TRUE,,35260,472.6,37119,Mecklenburg,"{""37119"": 100}",Mecklenburg,37119,FALSE,FALSE,America/New_York
28280,35.22633,-80.84309,Charlotte,NC,North Carolina,TRUE,,0,0,37119,Mecklenburg,"{""37119"": 100}",Mecklenburg,37119,FALSE,FALSE,America/New_York
28282,35.22481,-80.84529,Charlotte,NC,North Carolina,TRUE,,0,0,37119,Mecklenburg,"{""37119"": 100}",Mecklenburg,37119,FALSE,FALSE,America/New_York
28301,35.07442,-78.88376,Fayetteville,NC,North Carolina,TRUE,,16206,504.7,37051,Cumberland,"{""37051"": 100}",Cumberland,37051,FALSE,FALSE,America/New_York
28303,35.0852,-78.95815,Fayetteville,NC,North Carolina,TRUE,,30468,763.9,37051,Cumberland,"{""37051"": 100}",Cumberland,37051,FALSE,FALSE,America/New_York
28304,35.02498,-78.99072,Fayetteville,NC,North Carolina,TRUE,,36289,805.6,37051,Cumberland,"{""37051"": 97.53, ""37093"": 2.47}",Cumberland|Hoke,37051|37093,FALSE,FALSE,America/New_York
28305,35.05321,-78.90687,Fayetteville,NC,North Carolina,TRUE,,5640,837.3,37051,Cumberland,"{""37051"": 100}",Cumberland,37051,FALSE,FALSE,America/New_York
28306,34.9582,-78.89487,Fayetteville,NC,North Carolina,TRUE,,43736,242.1,37051,Cumberland,"{""37051"": 95.23, ""37017"": 3.64, ""37093"": 1.13}",Cumberland|Bladen|Hoke,37051|37017|37093,FALSE,FALSE,America/New_York
28307,35.14154,-78.99447,Fort Liberty,NC,North Carolina,TRUE,,14760,639.2,37051,Cumberland,"{""37051"": 100}",Cumberland,37051,FALSE,FALSE,America/New_York
28308,35.17206,-79.0149,Pope Army Airfield,NC,North Carolina,TRUE,,357,50.5,37051,Cumberland,"{""37051"": 100}",Cumberland,37051,FALSE,FALSE,America/New_York
28310,35.12946,-79.0523,Fort Liberty,NC,North Carolina,TRUE,,8830,78.2,37051,Cumberland,"{""37051"": 100}",Cumberland,37051,FALSE,FALSE,America/New_York
28311,35.17033,-78.88223,Fayetteville,NC,North Carolina,TRUE,,34683,366.6,37051,Cumberland,"{""37051"": 100}",Cumberland,37051,FALSE,FALSE,America/New_York
28312,34.94713,-78.73225,Fayetteville,NC,North Carolina,TRUE,,20111,47.3,37051,Cumberland,"{""37051"": 85.37, ""37017"": 14.63}",Cumberland|Bladen,37051|37017,FALSE,FALSE,America/New_York
28314,35.0557,-79.01678,Fayetteville,NC,North Carolina,TRUE,,57908,1153.5,37051,Cumberland,"{""37051"": 100}",Cumberland,37051,FALSE,FALSE,America/New_York
28315,35.1122,-79.44452,Aberdeen,NC,North Carolina,TRUE,,13997,83.2,37125,Moore,"{""37125"": 66.46, ""37093"": 33.54}",Moore|Hoke,37125|37093,FALSE,FALSE,America/New_York
28318,35.0176,-78.61665,Autryville,NC,North Carolina,TRUE,,3925,18.8,37163,Sampson,"{""37163"": 68.83, ""37051"": 31.17}",Sampson|Cumberland,37163|37051,FALSE,FALSE,America/New_York
28320,34.55378,-78.77456,Bladenboro,NC,North Carolina,TRUE,,8145,27.1,37017,Bladen,"{""37017"": 94.24, ""37047"": 5.76}",Bladen|Columbus,37017|37047,FALSE,FALSE,America/New_York
28323,35.31192,-78.83842,Bunnlevel,NC,North Carolina,TRUE,,4695,48.8,37085,Harnett,"{""37085"": 100}",Harnett,37085,FALSE,FALSE,America/New_York
28325,35.15335,-78.10425,Calypso,NC,North Carolina,TRUE,,428,174.3,37061,Duplin,"{""37061"": 100}",Duplin,37061,FALSE,FALSE,America/New_York
28326,35.27938,-79.16989,Cameron,NC,North Carolina,TRUE,,25713,84.3,37085,Harnett,"{""37085"": 56.43, ""37125"": 36.04, ""37105"": 7.53}",Harnett|Moore|Lee,37085|37125|37105,FALSE,FALSE,America/New_York
28327,35.35759,-79.42333,Carthage,NC,North Carolina,TRUE,,18810,38.9,37125,Moore,"{""37125"": 100}",Moore,37125,FALSE,FALSE,America/New_York
28328,35.00504,-78.33513,Clinton,NC,North Carolina,TRUE,,26101,41,37163,Sampson,"{""37163"": 100}",Sampson,37163,FALSE,FALSE,America/New_York
28330,34.91077,-79.82332,Cordova,NC,North Carolina,TRUE,,535,601.2,37153,Richmond,"{""37153"": 100}",Richmond,37153,FALSE,FALSE,America/New_York
28331,35.19883,-78.64944,Cumberland,NC,North Carolina,TRUE,,51,38.8,37051,Cumberland,"{""37051"": 100}",Cumberland,37051,FALSE,FALSE,America/New_York
28332,34.65808,-78.70971,Dublin,NC,North Carolina,TRUE,,787,89.3,37017,Bladen,"{""37017"": 100}",Bladen,37017,FALSE,FALSE,America/New_York
28333,35.28292,-78.01239,Dudley,NC,North Carolina,TRUE,,9985,84.4,37191,Wayne,"{""37191"": 100}",Wayne,37191,FALSE,FALSE,America/New_York
28334,35.2681,-78.57051,Dunn,NC,North Carolina,TRUE,,22249,53.6,37163,Sampson,"{""37163"": 46.56, ""37085"": 36.83, ""37051"": 8.49, ""37101"": 8.12}",Sampson|Harnett|Cumberland|Johnston,37163|37085|37051|37101,FALSE,FALSE,America/New_York
28337,34.66094,-78.57733,Elizabethtown,NC,North Carolina,TRUE,,8920,20.8,37017,Bladen,"{""37017"": 100}",Bladen,37017,FALSE,FALSE,America/New_York
28338,35.09644,-79.75506,Ellerbe,NC,North Carolina,TRUE,,3721,9.8,37153,Richmond,"{""37153"": 100}",Richmond,37153,FALSE,FALSE,America/New_York
28339,35.31409,-78.72115,Erwin,NC,North Carolina,TRUE,,6508,70.6,37085,Harnett,"{""37085"": 100}",Harnett,37085,FALSE,FALSE,America/New_York
28340,34.47136,-79.1403,Fairmont,NC,North Carolina,TRUE,,9790,30.7,37155,Robeson,"{""37155"": 100}",Robeson,37155,FALSE,FALSE,America/New_York
28341,35.11919,-78.17577,Faison,NC,North Carolina,TRUE,,3271,13.5,37163,Sampson,"{""37163"": 58.91, ""37061"": 41.09}",Sampson|Duplin,37163|37061,FALSE,FALSE,America/New_York
28342,35.18949,-78.6499,Falcon,NC,North Carolina,TRUE,,143,66.4,37051,Cumberland,"{""37051"": 100}",Cumberland,37051,FALSE,FALSE,America/New_York
28343,34.76454,-79.58129,Gibson,NC,North Carolina,TRUE,,1857,46.1,37165,Scotland,"{""37165"": 100}",Scotland,37165,FALSE,FALSE,America/New_York
28344,35.16506,-78.63139,Godwin,NC,North Carolina,TRUE,,4766,50.1,37163,Sampson,"{""37163"": 61.13, ""37051"": 38.87}",Sampson|Cumberland,37163|37051,FALSE,FALSE,America/New_York
28345,34.87464,-79.6716,Hamlet,NC,North Carolina,TRUE,,11484,62.4,37153,Richmond,"{""37153"": 96.47, ""37165"": 3.53}",Richmond|Scotland,37153|37165,FALSE,FALSE,America/New_York
28347,35.04652,-79.56203,Hoffman,NC,North Carolina,TRUE,,2016,20.7,37153,Richmond,"{""37153"": 84.14, ""37125"": 15.86}",Richmond|Moore,37153|37125,FALSE,FALSE,America/New_York
28348,34.92691,-78.91313,Hope Mills,NC,North Carolina,TRUE,,38665,353.7,37051,Cumberland,"{""37051"": 100}",Cumberland,37051,FALSE,FALSE,America/New_York
28349,34.98206,-77.92033,Kenansville,NC,North Carolina,TRUE,,3765,22,37061,Duplin,"{""37061"": 100}",Duplin,37061,FALSE,FALSE,America/New_York
28350,35.2488,-79.32064,Lakeview,NC,North Carolina,TRUE,,222,42.1,37125,Moore,"{""37125"": 100}",Moore,37125,FALSE,FALSE,America/New_York
28351,34.84098,-79.56102,Laurel Hill,NC,North Carolina,TRUE,,4617,30.3,37165,Scotland,"{""37165"": 97.06, ""37153"": 2.94}",Scotland|Richmond,37165|37153,FALSE,FALSE,America/New_York
28352,34.76762,-79.45321,Laurinburg,NC,North Carolina,TRUE,,24403,75.3,37165,Scotland,"{""37165"": 100}",Scotland,37165,FALSE,FALSE,America/New_York
28355,35.39053,-79.19514,Lemon Springs,NC,North Carolina,TRUE,,0,0,37105,Lee,"{""37105"": 100}",Lee,37105,FALSE,FALSE,America/New_York
28356,35.23092,-78.79113,Linden,NC,North Carolina,TRUE,,5638,39.4,37051,Cumberland,"{""37051"": 79.41, ""37085"": 20.59}",Cumberland|Harnett,37051|37085,FALSE,FALSE,America/New_York
28357,34.90606,-79.08688,Lumber Bridge,NC,North Carolina,TRUE,,2429,26.8,37155,Robeson,"{""37155"": 54.56, ""37093"": 45.44}",Robeson|Hoke,37155|37093,FALSE,FALSE,America/New_York
28358,34.60527,-78.94097,Lumberton,NC,North Carolina,TRUE,,34093,67,37155,Robeson,"{""37155"": 100}",Robeson,37155,FALSE,FALSE,America/New_York
28359,34.58686,-79.05475,Lumberton,NC,North Carolina,TRUE,,957,7611.9,37155,Robeson,"{""37155"": 100}",Robeson,37155,FALSE,FALSE,America/New_York
28360,34.67588,-79.07582,Lumberton,NC,North Carolina,TRUE,,13687,73.1,37155,Robeson,"{""37155"": 100}",Robeson,37155,FALSE,FALSE,America/New_York
28362,34.36961,-79.12882,Marietta,NC,North Carolina,TRUE,,44,45.3,37155,Robeson,"{""37155"": 100}",Robeson,37155,FALSE,FALSE,America/New_York
28363,34.95772,-79.53384,Marston,NC,North Carolina,TRUE,,965,5,37165,Scotland,"{""37165"": 73.86, ""37153"": 26.14}",Scotland|Richmond,37165|37153,FALSE,FALSE,America/New_York
28364,34.71447,-79.32759,Maxton,NC,North Carolina,TRUE,,13151,37.8,37155,Robeson,"{""37155"": 91.65, ""37165"": 6.92, ""37093"": 1.43}",Robeson|Scotland|Hoke,37155|37165|37093,FALSE,FALSE,America/New_York
28365,35.17807,-78.05827,Mount Olive,NC,North Carolina,TRUE,,14898,30.1,37061,Duplin,"{""37061"": 48.98, ""37191"": 46.19, ""37163"": 4.83}",Duplin|Wayne|Sampson,37061|37191|37163,FALSE,FALSE,America/New_York
28366,35.22974,-78.36317,Newton Grove,NC,North Carolina,TRUE,,4997,22.4,37163,Sampson,"{""37163"": 79.59, ""37101"": 20.41}",Sampson|Johnston,37163|37101,FALSE,FALSE,America/New_York
28367,35.16982,-79.72325,Norman,NC,North Carolina,TRUE,,173,119.8,37153,Richmond,"{""37153"": 99.67, ""37123"": 0.33}",Richmond|Montgomery,37153|37123,FALSE,FALSE,America/New_York
28368,35.36942,-79.11331,Olivia,NC,North Carolina,TRUE,,116,130.1,37085,Harnett,"{""37085"": 100}",Harnett,37085,FALSE,FALSE,America/New_York
28369,34.42184,-79.02901,Orrum,NC,North Carolina,TRUE,,2067,10.7,37155,Robeson,"{""37155"": 100}",Robeson,37155,FALSE,FALSE,America/New_York
28371,34.9079,-78.99018,Parkton,NC,North Carolina,TRUE,,6149,70.6,37155,Robeson,"{""37155"": 78.07, ""37051"": 19.77, ""37093"": 2.16}",Robeson|Cumberland|Hoke,37155|37051|37093,FALSE,FALSE,America/New_York
28372,34.69991,-79.1786,Pembroke,NC,North Carolina,TRUE,,12346,107.7,37155,Robeson,"{""37155"": 100}",Robeson,37155,FALSE,FALSE,America/New_York
28373,35.09079,-79.48522,Pinebluff,NC,North Carolina,TRUE,,2671,79.9,37125,Moore,"{""37125"": 100}",Moore,37125,FALSE,FALSE,America/New_York
28374,35.19705,-79.46009,Pinehurst,NC,North Carolina,TRUE,,19189,352.2,37125,Moore,"{""37125"": 100}",Moore,37125,FALSE,FALSE,America/New_York
28375,34.47723,-79.04337,Proctorville,NC,North Carolina,TRUE,,184,46.9,37155,Robeson,"{""37155"": 100}",Robeson,37155,FALSE,FALSE,America/New_York
28376,35.052,-79.23342,Raeford,NC,North Carolina,TRUE,,43457,60.2,37093,Hoke,"{""37093"": 100}",Hoke,37093,FALSE,FALSE,America/New_York
28377,34.83526,-79.21282,Red Springs,NC,North Carolina,TRUE,,11548,44.2,37093,Hoke,"{""37093"": 51.53, ""37155"": 48.47}",Hoke|Robeson,37093|37155,FALSE,FALSE,America/New_York
28378,34.85872,-79.0506,Rex,NC,North Carolina,TRUE,,22,7.6,37155,Robeson,"{""37155"": 100}",Robeson,37155,FALSE,FALSE,America/New_York
28379,34.93073,-79.78252,Rockingham,NC,North Carolina,TRUE,,24537,62.5,37153,Richmond,"{""37153"": 100}",Richmond,37153,FALSE,FALSE,America/New_York
28382,34.97546,-78.50561,Roseboro,NC,North Carolina,TRUE,,6689,22.9,37163,Sampson,"{""37163"": 87.22, ""37051"": 12.78}",Sampson|Cumberland,37163|37051,FALSE,FALSE,America/New_York
28383,34.57553,-79.26856,Rowland,NC,North Carolina,TRUE,,6499,23.8,37155,Robeson,"{""37155"": 100}",Robeson,37155,FALSE,FALSE,America/New_York
28384,34.79687,-78.95035,Saint Pauls,NC,North Carolina,TRUE,,10146,38.6,37155,Robeson,"{""37155"": 83.87, ""37017"": 13.07, ""37051"": 3.06}",Robeson|Bladen|Cumberland,37155|37017|37051,FALSE,FALSE,America/New_York
28385,35.04461,-78.50012,Salemburg,NC,North Carolina,TRUE,,2149,20.8,37163,Sampson,"{""37163"": 100}",Sampson,37163,FALSE,FALSE,America/New_York
28386,34.85889,-79.12984,Shannon,NC,North Carolina,TRUE,,5065,45.3,37155,Robeson,"{""37155"": 58.46, ""37093"": 41.54}",Robeson|Hoke,37155|37093,FALSE,FALSE,America/New_York
28387,35.18059,-79.37566,Southern Pines,NC,North Carolina,TRUE,,15277,199.7,37125,Moore,"{""37125"": 100}",Moore,37125,FALSE,FALSE,America/New_York
28390,35.21783,-78.95488,Spring Lake,NC,North Carolina,TRUE,,24902,159.8,37085,Harnett,"{""37085"": 52.23, ""37051"": 47.77}",Harnett|Cumberland,37085|37051,FALSE,FALSE,America/New_York
28391,35.03045,-78.70009,Stedman,NC,North Carolina,TRUE,,5724,56.2,37051,Cumberland,"{""37051"": 99.3, ""37163"": 0.7}",Cumberland|Sampson,37051|37163,FALSE,FALSE,America/New_York
28392,34.73467,-78.79465,Tar Heel,NC,North Carolina,TRUE,,1727,17.8,37017,Bladen,"{""37017"": 100}",Bladen,37017,FALSE,FALSE,America/New_York
28393,34.98205,-78.18895,Turkey,NC,North Carolina,TRUE,,1914,15.8,37163,Sampson,"{""37163"": 99.36, ""37061"": 0.64}",Sampson|Duplin,37163|37061,FALSE,FALSE,America/New_York
28394,35.21652,-79.23777,Vass,NC,North Carolina,TRUE,,5171,48.4,37125,Moore,"{""37125"": 100}",Moore,37125,FALSE,FALSE,America/New_York
28395,35.13643,-78.73855,Wade,NC,North Carolina,TRUE,,2426,18.6,37051,Cumberland,"{""37051"": 100}",Cumberland,37051,FALSE,FALSE,America/New_York
28396,34.93948,-79.40971,Wagram,NC,North Carolina,TRUE,,2272,16.1,37165,Scotland,"{""37165"": 100}",Scotland,37165,FALSE,FALSE,America/New_York
28398,34.99307,-78.07143,Warsaw,NC,North Carolina,TRUE,,6308,25.8,37061,Duplin,"{""37061"": 100}",Duplin,37061,FALSE,FALSE,America/New_York
28399,34.77885,-78.72953,White Oak,NC,North Carolina,TRUE,,1825,8.9,37017,Bladen,"{""37017"": 93.9, ""37051"": 6.1}",Bladen|Cumberland,37017|37051,FALSE,FALSE,America/New_York
28401,34.29053,-77.97053,Wilmington,NC,North Carolina,TRUE,,21872,272.5,37129,New Hanover,"{""37129"": 80.6, ""37141"": 19.4}",New Hanover|Pender,37129|37141,FALSE,FALSE,America/New_York
28403,34.22177,-77.87902,Wilmington,NC,North Carolina,TRUE,,39628,1090.6,37129,New Hanover,"{""37129"": 100}",New Hanover,37129,FALSE,FALSE,America/New_York
28405,34.26388,-77.86743,Wilmington,NC,North Carolina,TRUE,,34356,563.4,37129,New Hanover,"{""37129"": 100}",New Hanover,37129,FALSE,FALSE,America/New_York
28409,34.15244,-77.86477,Wilmington,NC,North Carolina,TRUE,,34397,592.8,37129,New Hanover,"{""37129"": 100}",New Hanover,37129,FALSE,FALSE,America/New_York
28411,34.3015,-77.79307,Wilmington,NC,North Carolina,TRUE,,36536,342.2,37129,New Hanover,"{""37129"": 80.48, ""37141"": 19.52}",New Hanover|Pender,37129|37141,FALSE,FALSE,America/New_York
28412,34.13306,-77.9191,Wilmington,NC,North Carolina,TRUE,,42122,730.4,37129,New Hanover,"{""37129"": 100}",New Hanover,37129,FALSE,FALSE,America/New_York
28420,34.07831,-78.46087,Ash,NC,North Carolina,TRUE,,2710,6.1,37019,Brunswick,"{""37019"": 100}",Brunswick,37019,FALSE,FALSE,America/New_York
28421,34.52183,-78.17802,Atkinson,NC,North Carolina,TRUE,,2047,14,37141,Pender,"{""37141"": 100}",Pender,37141,FALSE,FALSE,America/New_York
28422,34.05192,-78.20147,Bolivia,NC,North Carolina,TRUE,,8106,23.6,37019,Brunswick,"{""37019"": 100}",Brunswick,37019,FALSE,FALSE,America/New_York
28423,34.27782,-78.40483,Bolton,NC,North Carolina,TRUE,,2624,8.3,37047,Columbus,"{""37047"": 96.11, ""37017"": 3.89}",Columbus|Bladen,37047|37017,FALSE,FALSE,America/New_York
28424,34.29032,-78.69971,Brunswick,NC,North Carolina,TRUE,,35,94.3,37047,Columbus,"{""37047"": 100}",Columbus,37047,FALSE,FALSE,America/New_York
28425,34.5591,-77.90253,Burgaw,NC,North Carolina,TRUE,,10903,27.4,37141,Pender,"{""37141"": 100}",Pender,37141,FALSE,FALSE,America/New_York
28428,34.03831,-77.90682,Carolina Beach,NC,North Carolina,TRUE,,6949,519.8,37129,New Hanover,"{""37129"": 100}",New Hanover,37129,FALSE,FALSE,America/New_York
28429,34.34171,-77.9011,Castle Hayne,NC,North Carolina,TRUE,,8597,83.6,37129,New Hanover,"{""37129"": 100}",New Hanover,37129,FALSE,FALSE,America/New_York
28430,34.28419,-78.93333,Cerro Gordo,NC,North Carolina,TRUE,,2165,17.8,37047,Columbus,"{""37047"": 100}",Columbus,37047,FALSE,FALSE,America/New_York
28431,34.31661,-78.84397,Chadbourn,NC,North Carolina,TRUE,,6509,32,37047,Columbus,"{""37047"": 100}",Columbus,37047,FALSE,FALSE,America/New_York
28432,34.17018,-78.75795,Clarendon,NC,North Carolina,TRUE,,1447,16.3,37047,Columbus,"{""37047"": 100}",Columbus,37047,FALSE,FALSE,America/New_York
28433,34.48979,-78.62598,Clarkton,NC,North Carolina,TRUE,,4403,14.2,37017,Bladen,"{""37017"": 73.73, ""37047"": 26.27}",Bladen|Columbus,37017|37047,FALSE,FALSE,America/New_York
28434,34.47154,-78.47479,Council,NC,North Carolina,TRUE,,385,2.1,37017,Bladen,"{""37017"": 100}",Bladen,37017,FALSE,FALSE,America/New_York
28435,34.41007,-78.11508,Currie,NC,North Carolina,TRUE,,1964,8.6,37141,Pender,"{""37141"": 100}",Pender,37141,FALSE,FALSE,America/New_York
28436,34.26703,-78.27552,Delco,NC,North Carolina,TRUE,,1469,13,37047,Columbus,"{""37047"": 100}",Columbus,37047,FALSE,FALSE,America/New_York
28438,34.4166,-78.92221,Evergreen,NC,North Carolina,TRUE,,1490,12.8,37047,Columbus,"{""37047"": 95.51, ""37017"": 4.49}",Columbus|Bladen,37047|37017,FALSE,FALSE,America/New_York
28439,34.29411,-79.00947,Fair Bluff,NC,North Carolina,TRUE,,879,13.9,37047,Columbus,"{""37047"": 100}",Columbus,37047,FALSE,FALSE,America/New_York
28441,34.79047,-78.4355,Garland,NC,North Carolina,TRUE,,2970,7.9,37163,Sampson,"{""37163"": 52.91, ""37017"": 47.09}",Sampson|Bladen,37163|37017,FALSE,FALSE,America/New_York
28442,34.31023,-78.60106,Hallsboro,NC,North Carolina,TRUE,,1184,12,37047,Columbus,"{""37047"": 100}",Columbus,37047,FALSE,FALSE,America/New_York
28443,34.46211,-77.67312,Hampstead,NC,North Carolina,TRUE,,25655,67.9,37141,Pender,"{""37141"": 100}",Pender,37141,FALSE,FALSE,America/New_York
28444,34.6885,-78.31798,Harrells,NC,North Carolina,TRUE,,2500,9.2,37163,Sampson,"{""37163"": 53.21, ""37017"": 43.71, ""37061"": 3.08}",Sampson|Bladen|Duplin,37163|37017|37061,FALSE,FALSE,America/New_York
28445,34.54199,-77.54019,Holly Ridge,NC,North Carolina,TRUE,,9675,36,37133,Onslow,"{""37133"": 88.15, ""37141"": 11.85}",Onslow|Pender,37133|37141,FALSE,FALSE,America/New_York
28447,34.59953,-78.25848,Ivanhoe,NC,North Carolina,TRUE,,1378,5.3,37017,Bladen,"{""37017"": 41.74, ""37163"": 30.87, ""37141"": 27.4}",Bladen|Sampson|Pender,37017|37163|37141,FALSE,FALSE,America/New_York
28448,34.49078,-78.31933,Kelly,NC,North Carolina,TRUE,,871,3.5,37017,Bladen,"{""37017"": 95.29, ""37141"": 4.71}",Bladen|Pender,37017|37141,FALSE,FALSE,America/New_York
28449,33.98151,-77.92748,Kure Beach,NC,North Carolina,TRUE,,2033,198.2,37129,New Hanover,"{""37129"": 100}",New Hanover,37129,FALSE,FALSE,America/New_York
28450,34.29689,-78.51425,Lake Waccamaw,NC,North Carolina,TRUE,,2078,13.8,37047,Columbus,"{""37047"": 100}",Columbus,37047,FALSE,FALSE,America/New_York
28451,34.2327,-78.11503,Leland,NC,North Carolina,TRUE,,42073,94.3,37019,Brunswick,"{""37019"": 100}",Brunswick,37019,FALSE,FALSE,America/New_York
28452,34.0031,-78.55068,Longwood,NC,North Carolina,TRUE,,541,41.7,37019,Brunswick,"{""37019"": 100}",Brunswick,37019,FALSE,FALSE,America/New_York
28453,34.88283,-78.06805,Magnolia,NC,North Carolina,TRUE,,3559,16.2,37061,Duplin,"{""37061"": 75.38, ""37163"": 24.62}",Duplin|Sampson,37061|37163,FALSE,FALSE,America/New_York
28454,34.6703,-77.65393,Maple Hill,NC,North Carolina,TRUE,,2769,13.2,37133,Onslow,"{""37133"": 53.18, ""37141"": 46.82}",Onslow|Pender,37133|37141,FALSE,FALSE,America/New_York
28455,34.11045,-78.62865,Nakina,NC,North Carolina,TRUE,,2245,12.3,37047,Columbus,"{""37047"": 100}",Columbus,37047,FALSE,FALSE,America/New_York
28456,34.37678,-78.29228,Riegelwood,NC,North Carolina,TRUE,,4001,19.6,37047,Columbus,"{""37047"": 43.76, ""37017"": 43.19, ""37019"": 13.04}",Columbus|Bladen|Brunswick,37047|37017|37019,FALSE,FALSE,America/New_York
28457,34.45608,-77.86618,Rocky Point,NC,North Carolina,TRUE,,11281,29.5,37141,Pender,"{""37141"": 100}",Pender,37141,FALSE,FALSE,America/New_York
28458,34.81886,-78.07895,Rose Hill,NC,North Carolina,TRUE,,5481,18.5,37061,Duplin,"{""37061"": 69.65, ""37163"": 30.35}",Duplin|Sampson,37061|37163,FALSE,FALSE,America/New_York
28460,34.52569,-77.41873,Sneads Ferry,NC,North Carolina,TRUE,,11666,161.6,37133,Onslow,"{""37133"": 100}",Onslow,37133,FALSE,FALSE,America/New_York
28461,33.96607,-78.03874,Southport,NC,North Carolina,TRUE,,22255,113.2,37019,Brunswick,"{""37019"": 100}",Brunswick,37019,FALSE,FALSE,America/New_York
